{"type":"FeatureCollection","features":[{"type":"Feature","geometry":{"type":"Point","coordinates":[147.22000122070312,-9.443380355834961]},"properties":{"name":"Port Moresby Jacksons International Airport","municipality":"Port Moresby"}},{"type":"Feature","geometry":{"type":"Point","coordinates":[-22.6056,63.985001]},"properties":{"name":"Keflavik International Airport","municipality":"Reykjavík"}},{"type":"Feature","geometry":{"type":"Point","coordinates":[21.035801,42.5728]},"properties":{"name":"Priština International Airport","municipality":"Prishtina"}},{"type":"Feature","geometry":{"type":"Point","coordinates":[117.63201,36.001741]},"properties":{"name":"Guodu air base","municipality":""}},{"type":"Feature","geometry":{"type":"Point","coordinates":[-113.580001831,53.309700012200004]},"properties":{"name":"Edmonton International Airport","municipality":"Edmonton"}},{"type":"Feature","geometry":{"type":"Point","coordinates":[-63.5085983276,44.8807983398]},"properties":{"name":"Halifax / Stanfield International Airport","municipality":"Halifax"}},{"type":"Feature","geometry":{"type":"Point","coordinates":[-75.66919708251953,45.3224983215332]},"properties":{"name":"Ottawa Macdonald-Cartier International Airport","municipality":"Ottawa"}},{"type":"Feature","geometry":{"type":"Point","coordinates":[-73.7407989502,45.4706001282]},"properties":{"name":"Montreal / Pierre Elliott Trudeau International Airport","municipality":"Montréal"}},{"type":"Feature","geometry":{"type":"Point","coordinates":[-123.183998108,49.193901062]},"properties":{"name":"Vancouver International Airport","municipality":"Vancouver"}},{"type":"Feature","geometry":{"type":"Point","coordinates":[-97.2398986816,49.909999847399995]},"properties":{"name":"Winnipeg / James Armstrong Richardson International Airport","municipality":"Winnipeg"}},{"type":"Feature","geometry":{"type":"Point","coordinates":[-114.019996643,51.113899231]},"properties":{"name":"Calgary International Airport","municipality":"Calgary"}},{"type":"Feature","geometry":{"type":"Point","coordinates":[-123.426002502,48.646900177]},"properties":{"name":"Victoria International Airport","municipality":"Victoria"}},{"type":"Feature","geometry":{"type":"Point","coordinates":[-52.7518997192,47.618598938]},"properties":{"name":"St. John's International Airport","municipality":"St. John's"}},{"type":"Feature","geometry":{"type":"Point","coordinates":[-79.63059997559999,43.6772003174]},"properties":{"name":"Lester B. Pearson International Airport","municipality":"Toronto"}},{"type":"Feature","geometry":{"type":"Point","coordinates":[3.215409994125366,36.691001892089844]},"properties":{"name":"Houari Boumediene Airport","municipality":"Algiers"}},{"type":"Feature","geometry":{"type":"Point","coordinates":[-1.51242,12.3532]},"properties":{"name":"Ouagadougou Airport","municipality":"Ouagadougou"}},{"type":"Feature","geometry":{"type":"Point","coordinates":[-0.16678600013256073,5.605189800262451]},"properties":{"name":"Kotoka International Airport","municipality":"Accra"}},{"type":"Feature","geometry":{"type":"Point","coordinates":[7.263169765472412,9.006790161132812]},"properties":{"name":"Nnamdi Azikiwe International Airport","municipality":"Abuja"}},{"type":"Feature","geometry":{"type":"Point","coordinates":[8.093,4.8725]},"properties":{"name":"Akwa Ibom International Airport","municipality":"Uyo"}},{"type":"Feature","geometry":{"type":"Point","coordinates":[8.52462,12.0476]},"properties":{"name":"Mallam Aminu International Airport","municipality":"Kano"}},{"type":"Feature","geometry":{"type":"Point","coordinates":[3.321160078048706,6.5773701667785645]},"properties":{"name":"Murtala Muhammed International Airport","municipality":"Lagos"}},{"type":"Feature","geometry":{"type":"Point","coordinates":[2.18361,13.4815]},"properties":{"name":"Diori Hamani International Airport","municipality":"Niamey"}},{"type":"Feature","geometry":{"type":"Point","coordinates":[10.22719955444336,36.85100173950195]},"properties":{"name":"Tunis Carthage International Airport","municipality":"Tunis"}},{"type":"Feature","geometry":{"type":"Point","coordinates":[4.48443984985,50.901401519800004]},"properties":{"name":"Brussels Airport","municipality":"Brussels"}},{"type":"Feature","geometry":{"type":"Point","coordinates":[4.45382,50.459202]},"properties":{"name":"Brussels South Charleroi Airport","municipality":"Brussels"}},{"type":"Feature","geometry":{"type":"Point","coordinates":[5.443220138549805,50.63740158081055]},"properties":{"name":"Liège Airport","municipality":"Liège"}},{"type":"Feature","geometry":{"type":"Point","coordinates":[13.5225,52.380001]},"properties":{"name":"Berlin-Schönefeld Airport","municipality":"Berlin"}},{"type":"Feature","geometry":{"type":"Point","coordinates":[13.767200469970703,51.1328010559082]},"properties":{"name":"Dresden Airport","municipality":"Dresden"}},{"type":"Feature","geometry":{"type":"Point","coordinates":[8.570556,50.033333]},"properties":{"name":"Frankfurt am Main Airport","municipality":"Frankfurt am Main"}},{"type":"Feature","geometry":{"type":"Point","coordinates":[7.68483018875,52.134601593]},"properties":{"name":"Münster Osnabrück Airport","municipality":"Münster"}},{"type":"Feature","geometry":{"type":"Point","coordinates":[9.9882297515869,53.630401611328]},"properties":{"name":"Hamburg Airport","municipality":"Hamburg"}},{"type":"Feature","geometry":{"type":"Point","coordinates":[7.1427397728,50.8658981323]},"properties":{"name":"Cologne Bonn Airport","municipality":"Cologne"}},{"type":"Feature","geometry":{"type":"Point","coordinates":[6.76678,51.289501]},"properties":{"name":"Düsseldorf Airport","municipality":"Düsseldorf"}},{"type":"Feature","geometry":{"type":"Point","coordinates":[11.7861,48.353802]},"properties":{"name":"Munich Airport","municipality":"Munich"}},{"type":"Feature","geometry":{"type":"Point","coordinates":[11.078056,49.498699]},"properties":{"name":"Nuremberg Airport","municipality":"Nuremberg"}},{"type":"Feature","geometry":{"type":"Point","coordinates":[12.236389,51.423889]},"properties":{"name":"Leipzig/Halle Airport","municipality":"Leipzig"}},{"type":"Feature","geometry":{"type":"Point","coordinates":[9.22196006775,48.689899444599995]},"properties":{"name":"Stuttgart Airport","municipality":"Stuttgart"}},{"type":"Feature","geometry":{"type":"Point","coordinates":[13.2877,52.5597]},"properties":{"name":"Berlin-Tegel Airport","municipality":"Berlin"}},{"type":"Feature","geometry":{"type":"Point","coordinates":[9.685079574580001,52.461101532]},"properties":{"name":"Hannover Airport","municipality":"Hannover"}},{"type":"Feature","geometry":{"type":"Point","coordinates":[8.78666973114,53.0475006104]},"properties":{"name":"Bremen Airport","municipality":"Bremen"}},{"type":"Feature","geometry":{"type":"Point","coordinates":[7.61223983765,51.51829910279999]},"properties":{"name":"Dortmund Airport","municipality":"Dortmund"}},{"type":"Feature","geometry":{"type":"Point","coordinates":[8.08049964905,48.7793998718]},"properties":{"name":"Karlsruhe Baden-Baden Airport","municipality":"Baden-Baden"}},{"type":"Feature","geometry":{"type":"Point","coordinates":[24.832799911499997,59.41329956049999]},"properties":{"name":"Lennart Meri Tallinn Airport","municipality":"Tallinn"}},{"type":"Feature","geometry":{"type":"Point","coordinates":[24.963300704956,60.317199707031]},"properties":{"name":"Helsinki Vantaa Airport","municipality":"Helsinki"}},{"type":"Feature","geometry":{"type":"Point","coordinates":[-6.2158298492399995,54.6575012207]},"properties":{"name":"Belfast International Airport","municipality":"Belfast"}},{"type":"Feature","geometry":{"type":"Point","coordinates":[-5.872499942779541,54.618099212646484]},"properties":{"name":"George Best Belfast City Airport","municipality":"Belfast"}},{"type":"Feature","geometry":{"type":"Point","coordinates":[-1.74802994728,52.453899383499994]},"properties":{"name":"Birmingham International Airport","municipality":"Birmingham"}},{"type":"Feature","geometry":{"type":"Point","coordinates":[-2.2749500274658203,53.35369873046875]},"properties":{"name":"Manchester Airport","municipality":"Manchester"}},{"type":"Feature","geometry":{"type":"Point","coordinates":[-1.01065635681,53.4805378105]},"properties":{"name":"Robin Hood Doncaster Sheffield Airport","municipality":"Doncaster"}},{"type":"Feature","geometry":{"type":"Point","coordinates":[-3.343329906463623,51.39670181274414]},"properties":{"name":"Cardiff International Airport","municipality":"Cardiff"}},{"type":"Feature","geometry":{"type":"Point","coordinates":[-2.71909,51.382702]},"properties":{"name":"Bristol Airport","municipality":"Bristol"}},{"type":"Feature","geometry":{"type":"Point","coordinates":[-2.849720001220703,53.33359909057617]},"properties":{"name":"Liverpool John Lennon Airport","municipality":"Liverpool"}},{"type":"Feature","geometry":{"type":"Point","coordinates":[-0.36833301186561584,51.874698638916016]},"properties":{"name":"London Luton Airport","municipality":"London"}},{"type":"Feature","geometry":{"type":"Point","coordinates":[-1.8424999713897705,50.779998779296875]},"properties":{"name":"Bournemouth Airport","municipality":"Bournemouth"}},{"type":"Feature","geometry":{"type":"Point","coordinates":[-1.3567999601364136,50.95029830932617]},"properties":{"name":"Southampton Airport","municipality":"Southampton"}},{"type":"Feature","geometry":{"type":"Point","coordinates":[-0.190278,51.148102]},"properties":{"name":"London Gatwick Airport","municipality":"London"}},{"type":"Feature","geometry":{"type":"Point","coordinates":[-0.461941,51.4706]},"properties":{"name":"London Heathrow Airport","municipality":"London"}},{"type":"Feature","geometry":{"type":"Point","coordinates":[-1.6605700254440308,53.86589813232422]},"properties":{"name":"Leeds Bradford Airport","municipality":"Leeds"}},{"type":"Feature","geometry":{"type":"Point","coordinates":[-1.6916699409484863,55.037498474121094]},"properties":{"name":"Newcastle Airport","municipality":"Newcastle"}},{"type":"Feature","geometry":{"type":"Point","coordinates":[-1.32806003094,52.8311004639]},"properties":{"name":"East Midlands Airport","municipality":"Nottingham"}},{"type":"Feature","geometry":{"type":"Point","coordinates":[-2.197779893875122,57.201900482177734]},"properties":{"name":"Aberdeen Dyce Airport","municipality":"Aberdeen"}},{"type":"Feature","geometry":{"type":"Point","coordinates":[-4.43306,55.871899]},"properties":{"name":"Glasgow International Airport","municipality":"Glasgow"}},{"type":"Feature","geometry":{"type":"Point","coordinates":[-3.372499942779541,55.95000076293945]},"properties":{"name":"Edinburgh Airport","municipality":"Edinburgh"}},{"type":"Feature","geometry":{"type":"Point","coordinates":[1.28278005123,52.6758003235]},"properties":{"name":"Norwich International Airport","municipality":"Norwich"}},{"type":"Feature","geometry":{"type":"Point","coordinates":[0.234999999404,51.8849983215]},"properties":{"name":"London Stansted Airport","municipality":"London"}},{"type":"Feature","geometry":{"type":"Point","coordinates":[-3.4138898849487305,50.73440170288086]},"properties":{"name":"Exeter International Airport","municipality":"Exeter"}},{"type":"Feature","geometry":{"type":"Point","coordinates":[0.56099998951,52.409301757799994]},"properties":{"name":"RAF Lakenheath","municipality":"Lakenheath"}},{"type":"Feature","geometry":{"type":"Point","coordinates":[0.48640599846839905,52.361900329589844]},"properties":{"name":"RAF Mildenhall","municipality":"Mildenhall"}},{"type":"Feature","geometry":{"type":"Point","coordinates":[-1.7900300025900002,51.6822013855]},"properties":{"name":"RAF Fairford","municipality":"Fairford"}},{"type":"Feature","geometry":{"type":"Point","coordinates":[-1.58362,51.75]},"properties":{"name":"RAF Brize Norton","municipality":"Brize Norton"}},{"type":"Feature","geometry":{"type":"Point","coordinates":[4.76389,52.308601]},"properties":{"name":"Amsterdam Airport Schiphol","municipality":"Amsterdam"}},{"type":"Feature","geometry":{"type":"Point","coordinates":[5.37452983856,51.4500999451]},"properties":{"name":"Eindhoven Airport","municipality":"Eindhoven"}},{"type":"Feature","geometry":{"type":"Point","coordinates":[-8.491109848022461,51.84130096435547]},"properties":{"name":"Cork Airport","municipality":"Cork"}},{"type":"Feature","geometry":{"type":"Point","coordinates":[-6.27007,53.421299]},"properties":{"name":"Dublin Airport","municipality":"Dublin"}},{"type":"Feature","geometry":{"type":"Point","coordinates":[-8.92482,52.702]},"properties":{"name":"Shannon Airport","municipality":"Shannon"}},{"type":"Feature","geometry":{"type":"Point","coordinates":[9.15178012848,55.7402992249]},"properties":{"name":"Billund Airport","municipality":"Billund"}},{"type":"Feature","geometry":{"type":"Point","coordinates":[12.656000137329,55.617900848389]},"properties":{"name":"Copenhagen Kastrup Airport","municipality":"Copenhagen"}},{"type":"Feature","geometry":{"type":"Point","coordinates":[9.84924316406,57.0927589138]},"properties":{"name":"Aalborg Airport","municipality":"Aalborg"}},{"type":"Feature","geometry":{"type":"Point","coordinates":[6.2044444,49.6233333]},"properties":{"name":"Luxembourg-Findel International Airport","municipality":"Luxembourg"}},{"type":"Feature","geometry":{"type":"Point","coordinates":[14.365300178527832,67.26920318603516]},"properties":{"name":"Bodø Airport","municipality":"Bodø"}},{"type":"Feature","geometry":{"type":"Point","coordinates":[5.218140125,60.29339981]},"properties":{"name":"Bergen Airport Flesland","municipality":"Bergen"}},{"type":"Feature","geometry":{"type":"Point","coordinates":[11.100399971008,60.193901062012]},"properties":{"name":"Oslo Gardermoen Airport","municipality":"Oslo"}},{"type":"Feature","geometry":{"type":"Point","coordinates":[18.918899536132812,69.68329620361328]},"properties":{"name":"Tromsø Airport","municipality":"Tromsø"}},{"type":"Feature","geometry":{"type":"Point","coordinates":[10.9239998,63.4578018]},"properties":{"name":"Trondheim Airport Værnes","municipality":"Trondheim"}},{"type":"Feature","geometry":{"type":"Point","coordinates":[5.6377801895,58.876701354]},"properties":{"name":"Stavanger Airport Sola","municipality":"Stavanger"}},{"type":"Feature","geometry":{"type":"Point","coordinates":[18.46619987487793,54.377601623535156]},"properties":{"name":"Gdańsk Lech Wałęsa Airport","municipality":"Gdańsk"}},{"type":"Feature","geometry":{"type":"Point","coordinates":[19.7848,50.077702]},"properties":{"name":"Kraków John Paul II International Airport","municipality":"Kraków"}},{"type":"Feature","geometry":{"type":"Point","coordinates":[19.08,50.4743]},"properties":{"name":"Katowice International Airport","municipality":"Katowice"}},{"type":"Feature","geometry":{"type":"Point","coordinates":[20.6518,52.451099]},"properties":{"name":"Modlin Airport","municipality":"Warsaw"}},{"type":"Feature","geometry":{"type":"Point","coordinates":[16.8262996674,52.421001434299995]},"properties":{"name":"Poznań-Ławica Airport","municipality":"Poznań"}},{"type":"Feature","geometry":{"type":"Point","coordinates":[20.967100143399996,52.1656990051]},"properties":{"name":"Warsaw Chopin Airport","municipality":"Warsaw"}},{"type":"Feature","geometry":{"type":"Point","coordinates":[16.885799408,51.1026992798]},"properties":{"name":"Copernicus Wrocław Airport","municipality":"Wrocław"}},{"type":"Feature","geometry":{"type":"Point","coordinates":[12.279800415039,57.662799835205]},"properties":{"name":"Gothenburg-Landvetter Airport","municipality":"Gothenburg"}},{"type":"Feature","geometry":{"type":"Point","coordinates":[13.376197814900001,55.536305364]},"properties":{"name":"Malmö Sturup Airport","municipality":"Malmö"}},{"type":"Feature","geometry":{"type":"Point","coordinates":[22.121999740601,65.543800354004]},"properties":{"name":"Luleå Airport","municipality":"Luleå"}},{"type":"Feature","geometry":{"type":"Point","coordinates":[17.918600082397,59.651901245117]},"properties":{"name":"Stockholm-Arlanda Airport","municipality":"Stockholm"}},{"type":"Feature","geometry":{"type":"Point","coordinates":[7.600279808044434,49.4369010925293]},"properties":{"name":"Ramstein Air Base","municipality":"Ramstein"}},{"type":"Feature","geometry":{"type":"Point","coordinates":[23.971099853515625,56.92359924316406]},"properties":{"name":"Riga International Airport","municipality":"Riga"}},{"type":"Feature","geometry":{"type":"Point","coordinates":[25.285801,54.634102]},"properties":{"name":"Vilnius International Airport","municipality":"Vilnius"}},{"type":"Feature","geometry":{"type":"Point","coordinates":[18.6016998291,-33.9648017883]},"properties":{"name":"Cape Town International Airport","municipality":"Cape Town"}},{"type":"Feature","geometry":{"type":"Point","coordinates":[22.378902,-34.0056]},"properties":{"name":"George Airport","municipality":"George"}},{"type":"Feature","geometry":{"type":"Point","coordinates":[31.1197222222,-29.6144444444]},"properties":{"name":"King Shaka International Airport","municipality":"Durban"}},{"type":"Feature","geometry":{"type":"Point","coordinates":[28.246,-26.1392]},"properties":{"name":"OR Tambo International Airport","municipality":"Johannesburg"}},{"type":"Feature","geometry":{"type":"Point","coordinates":[25.9182,-24.555201]},"properties":{"name":"Sir Seretse Khama International Airport","municipality":"Gaborone"}},{"type":"Feature","geometry":{"type":"Point","coordinates":[31.716944,-26.358611]},"properties":{"name":"King Mswati III International Airport","municipality":""}},{"type":"Feature","geometry":{"type":"Point","coordinates":[57.683601,-20.430201]},"properties":{"name":"Sir Seewoosagur Ramgoolam International Airport","municipality":"Port Louis"}},{"type":"Feature","geometry":{"type":"Point","coordinates":[28.4526,-15.3308]},"properties":{"name":"Kenneth Kaunda International Airport","municipality":"Lusaka"}},{"type":"Feature","geometry":{"type":"Point","coordinates":[47.478802,-18.7969]},"properties":{"name":"Ivato Airport","municipality":"Antananarivo"}},{"type":"Feature","geometry":{"type":"Point","coordinates":[13.2312,-8.85837]},"properties":{"name":"Quatro de Fevereiro Airport","municipality":"Luanda"}},{"type":"Feature","geometry":{"type":"Point","coordinates":[32.572601,-25.920799]},"properties":{"name":"Maputo Airport","municipality":"Maputo"}},{"type":"Feature","geometry":{"type":"Point","coordinates":[55.521801,-4.67434]},"properties":{"name":"Seychelles International Airport","municipality":"Mahe Island"}},{"type":"Feature","geometry":{"type":"Point","coordinates":[15.034,12.1337]},"properties":{"name":"N'Djamena International Airport","municipality":"N'Djamena"}},{"type":"Feature","geometry":{"type":"Point","coordinates":[31.0928,-17.931801]},"properties":{"name":"Robert Gabriel Mugabe International Airport","municipality":"Harare"}},{"type":"Feature","geometry":{"type":"Point","coordinates":[17.4709,-22.4799]},"properties":{"name":"Hosea Kutako International Airport","municipality":"Windhoek"}},{"type":"Feature","geometry":{"type":"Point","coordinates":[15.4446,-4.38575]},"properties":{"name":"Ndjili International Airport","municipality":"Kinshasa"}},{"type":"Feature","geometry":{"type":"Point","coordinates":[-7.94994,12.5335]},"properties":{"name":"Modibo Keita International Airport","municipality":"Bamako"}},{"type":"Feature","geometry":{"type":"Point","coordinates":[-17.7556,28.626499]},"properties":{"name":"La Palma Airport","municipality":"Sta Cruz de la Palma, La Palma Island"}},{"type":"Feature","geometry":{"type":"Point","coordinates":[-15.38659954071045,27.931900024414062]},"properties":{"name":"Gran Canaria Airport","municipality":"Gran Canaria Island"}},{"type":"Feature","geometry":{"type":"Point","coordinates":[-16.5725002289,28.044500351]},"properties":{"name":"Tenerife South Airport","municipality":"Tenerife Island"}},{"type":"Feature","geometry":{"type":"Point","coordinates":[-16.3414993286,28.4827003479]},"properties":{"name":"Tenerife Norte Airport","municipality":"Tenerife Island"}},{"type":"Feature","geometry":{"type":"Point","coordinates":[-13.1955,8.61644]},"properties":{"name":"Lungi International Airport","municipality":"Freetown"}},{"type":"Feature","geometry":{"type":"Point","coordinates":[-10.3623,6.23379]},"properties":{"name":"Roberts International Airport","municipality":"Monrovia"}},{"type":"Feature","geometry":{"type":"Point","coordinates":[-7.589970111846924,33.36750030517578]},"properties":{"name":"Mohammed V International Airport","municipality":"Casablanca"}},{"type":"Feature","geometry":{"type":"Point","coordinates":[-17.073333,14.67]},"properties":{"name":"Blaise Diagne International Airport","municipality":"Dakar"}},{"type":"Feature","geometry":{"type":"Point","coordinates":[-17.49020004272461,14.739700317382812]},"properties":{"name":"Léopold Sédar Senghor International Airport","municipality":"Dakar"}},{"type":"Feature","geometry":{"type":"Point","coordinates":[-15.9697222,18.31]},"properties":{"name":"Nouakchott–Oumtounsy International Airport","municipality":"Nouakchott"}},{"type":"Feature","geometry":{"type":"Point","coordinates":[-22.9494,16.7414]},"properties":{"name":"Amílcar Cabral International Airport","municipality":"Espargos"}},{"type":"Feature","geometry":{"type":"Point","coordinates":[38.799301147499996,8.97789001465]},"properties":{"name":"Addis Ababa Bole International Airport","municipality":"Addis Ababa"}},{"type":"Feature","geometry":{"type":"Point","coordinates":[44.082389,9.513207]},"properties":{"name":"Egal International Airport","municipality":"Hargeisa"}},{"type":"Feature","geometry":{"type":"Point","coordinates":[31.40559959411621,30.12190055847168]},"properties":{"name":"Cairo International Airport","municipality":"Cairo"}},{"type":"Feature","geometry":{"type":"Point","coordinates":[33.799400329589844,27.178300857543945]},"properties":{"name":"Hurghada International Airport","municipality":"Hurghada"}},{"type":"Feature","geometry":{"type":"Point","coordinates":[32.7066,25.671]},"properties":{"name":"Luxor International Airport","municipality":"Luxor"}},{"type":"Feature","geometry":{"type":"Point","coordinates":[36.9277992249,-1.31923997402]},"properties":{"name":"Jomo Kenyatta International Airport","municipality":"Nairobi"}},{"type":"Feature","geometry":{"type":"Point","coordinates":[39.594200134277344,-4.034830093383789]},"properties":{"name":"Mombasa Moi International Airport","municipality":"Mombasa"}},{"type":"Feature","geometry":{"type":"Point","coordinates":[13.1590003967,32.6635017395]},"properties":{"name":"Tripoli International Airport","municipality":"Tripoli"}},{"type":"Feature","geometry":{"type":"Point","coordinates":[30.1395,-1.96863]},"properties":{"name":"Kigali International Airport","municipality":"Kigali"}},{"type":"Feature","geometry":{"type":"Point","coordinates":[31.6011009216,4.87201023102]},"properties":{"name":"Juba International Airport","municipality":"Juba"}},{"type":"Feature","geometry":{"type":"Point","coordinates":[32.553199768066406,15.589500427246094]},"properties":{"name":"Khartoum International Airport","municipality":"Khartoum"}},{"type":"Feature","geometry":{"type":"Point","coordinates":[39.202599,-6.87811]},"properties":{"name":"Julius Nyerere International Airport","municipality":"Dar es Salaam"}},{"type":"Feature","geometry":{"type":"Point","coordinates":[39.224899,-6.22202]},"properties":{"name":"Abeid Amani Karume International Airport","municipality":"Zanzibar"}},{"type":"Feature","geometry":{"type":"Point","coordinates":[32.443501,0.042386]},"properties":{"name":"Entebbe International Airport","municipality":"Kampala"}},{"type":"Feature","geometry":{"type":"Point","coordinates":[117.249392,-0.374448]},"properties":{"name":"Aji Pangeran Tumenggung Pranoto International Airport","municipality":"Samarinda"}},{"type":"Feature","geometry":{"type":"Point","coordinates":[-106.609001,35.040199]},"properties":{"name":"Albuquerque International Sunport","municipality":"Albuquerque"}},{"type":"Feature","geometry":{"type":"Point","coordinates":[-76.866997,38.810799]},"properties":{"name":"Joint Base Andrews","municipality":"Camp Springs"}},{"type":"Feature","geometry":{"type":"Point","coordinates":[-97.31880187990001,32.9875984192]},"properties":{"name":"Fort Worth Alliance Airport","municipality":"Fort Worth"}},{"type":"Feature","geometry":{"type":"Point","coordinates":[-81.9645004272461,33.36989974975586]},"properties":{"name":"Augusta Regional At Bush Field","municipality":"Augusta"}},{"type":"Feature","geometry":{"type":"Point","coordinates":[-101.706001,35.219398]},"properties":{"name":"Rick Husband Amarillo International Airport","municipality":"Amarillo"}},{"type":"Feature","geometry":{"type":"Point","coordinates":[-84.428101,33.6367]},"properties":{"name":"Hartsfield Jackson Atlanta International Airport","municipality":"Atlanta"}},{"type":"Feature","geometry":{"type":"Point","coordinates":[-97.6698989868164,30.194499969482422]},"properties":{"name":"Austin Bergstrom International Airport","municipality":"Austin"}},{"type":"Feature","geometry":{"type":"Point","coordinates":[-82.541801,35.436199]},"properties":{"name":"Asheville Regional Airport","municipality":"Asheville"}},{"type":"Feature","geometry":{"type":"Point","coordinates":[-121.43699646,39.136100769]},"properties":{"name":"Beale Air Force Base","municipality":"Marysville"}},{"type":"Feature","geometry":{"type":"Point","coordinates":[-93.6626968384,32.5018005371]},"properties":{"name":"Barksdale Air Force Base","municipality":"Bossier City"}},{"type":"Feature","geometry":{"type":"Point","coordinates":[-72.68319702149999,41.9388999939]},"properties":{"name":"Bradley International Airport","municipality":"Hartford"}},{"type":"Feature","geometry":{"type":"Point","coordinates":[-122.302001953125,47.529998779296875]},"properties":{"name":"Boeing Field King County International Airport","municipality":"Seattle"}},{"type":"Feature","geometry":{"type":"Point","coordinates":[-68.8281021118164,44.80739974975586]},"properties":{"name":"Bangor International Airport","municipality":"Bangor"}},{"type":"Feature","geometry":{"type":"Point","coordinates":[-86.75350189,33.56290054]},"properties":{"name":"Birmingham-Shuttlesworth International Airport","municipality":"Birmingham"}},{"type":"Feature","geometry":{"type":"Point","coordinates":[-108.54299926757812,45.807701110839844]},"properties":{"name":"Billings Logan International Airport","municipality":"Billings"}},{"type":"Feature","geometry":{"type":"Point","coordinates":[-89.835197,38.5452]},"properties":{"name":"Scott AFB/Midamerica Airport","municipality":"Belleville"}},{"type":"Feature","geometry":{"type":"Point","coordinates":[-88.91590118,40.47710037]},"properties":{"name":"Central Illinois Regional Airport at Bloomington-Normal","municipality":"Bloomington/Normal"}},{"type":"Feature","geometry":{"type":"Point","coordinates":[-86.6781997680664,36.1245002746582]},"properties":{"name":"Nashville International Airport","municipality":"Nashville"}},{"type":"Feature","geometry":{"type":"Point","coordinates":[-116.223,43.5644]},"properties":{"name":"Boise Air Terminal/Gowen Field","municipality":"Boise"}},{"type":"Feature","geometry":{"type":"Point","coordinates":[-71.00520325,42.36429977]},"properties":{"name":"General Edward Lawrence Logan International Airport","municipality":"Boston"}},{"type":"Feature","geometry":{"type":"Point","coordinates":[-78.73220062,42.94049835]},"properties":{"name":"Buffalo Niagara International Airport","municipality":"Buffalo"}},{"type":"Feature","geometry":{"type":"Point","coordinates":[-76.668297,39.1754]},"properties":{"name":"Baltimore/Washington International Thurgood Marshall Airport","municipality":"Baltimore"}},{"type":"Feature","geometry":{"type":"Point","coordinates":[-81.11949920654297,33.93880081176758]},"properties":{"name":"Columbia Metropolitan Airport","municipality":"Columbia"}},{"type":"Feature","geometry":{"type":"Point","coordinates":[-88.44380187990001,33.6437988281]},"properties":{"name":"Columbus Air Force Base","municipality":"Columbus"}},{"type":"Feature","geometry":{"type":"Point","coordinates":[-85.20379638671875,35.035301208496094]},"properties":{"name":"Lovell Field","municipality":"Chattanooga"}},{"type":"Feature","geometry":{"type":"Point","coordinates":[-80.04049683,32.89860153]},"properties":{"name":"Charleston Air Force Base-International Airport","municipality":"Charleston"}},{"type":"Feature","geometry":{"type":"Point","coordinates":[-91.71080017089844,41.884700775146484]},"properties":{"name":"The Eastern Iowa Airport","municipality":"Cedar Rapids"}},{"type":"Feature","geometry":{"type":"Point","coordinates":[-81.8498001099,41.4117012024]},"properties":{"name":"Cleveland Hopkins International Airport","municipality":"Cleveland"}},{"type":"Feature","geometry":{"type":"Point","coordinates":[-80.94309997558594,35.2140007019043]},"properties":{"name":"Charlotte Douglas International Airport","municipality":"Charlotte"}},{"type":"Feature","geometry":{"type":"Point","coordinates":[-82.891899,39.998001]},"properties":{"name":"John Glenn Columbus International Airport","municipality":"Columbus"}},{"type":"Feature","geometry":{"type":"Point","coordinates":[-104.700996,38.805801]},"properties":{"name":"City of Colorado Springs Municipal Airport","municipality":"Colorado Springs"}},{"type":"Feature","geometry":{"type":"Point","coordinates":[-97.5011978149414,27.77039909362793]},"properties":{"name":"Corpus Christi International Airport","municipality":"Corpus Christi"}},{"type":"Feature","geometry":{"type":"Point","coordinates":[-81.59320068359375,38.37310028076172]},"properties":{"name":"Yeager Airport","municipality":"Charleston"}},{"type":"Feature","geometry":{"type":"Point","coordinates":[-84.667801,39.048801]},"properties":{"name":"Cincinnati Northern Kentucky International Airport","municipality":"Cincinnati / Covington"}},{"type":"Feature","geometry":{"type":"Point","coordinates":[-103.321998596,34.3828010559]},"properties":{"name":"Cannon Air Force Base","municipality":"Clovis"}},{"type":"Feature","geometry":{"type":"Point","coordinates":[-81.058098,29.179899]},"properties":{"name":"Daytona Beach International Airport","municipality":"Daytona Beach"}},{"type":"Feature","geometry":{"type":"Point","coordinates":[-96.851799,32.847099]},"properties":{"name":"Dallas Love Field","municipality":"Dallas"}},{"type":"Feature","geometry":{"type":"Point","coordinates":[-84.21939849853516,39.902400970458984]},"properties":{"name":"James M Cox Dayton International Airport","municipality":"Dayton"}},{"type":"Feature","geometry":{"type":"Point","coordinates":[-90.70950317,42.40200043]},"properties":{"name":"Dubuque Regional Airport","municipality":"Dubuque"}},{"type":"Feature","geometry":{"type":"Point","coordinates":[-77.037697,38.8521]},"properties":{"name":"Ronald Reagan Washington National Airport","municipality":"Washington"}},{"type":"Feature","geometry":{"type":"Point","coordinates":[-104.672996521,39.861698150635]},"properties":{"name":"Denver International Airport","municipality":"Denver"}},{"type":"Feature","geometry":{"type":"Point","coordinates":[-97.038002,32.896801]},"properties":{"name":"Dallas Fort Worth International Airport","municipality":"Dallas-Fort Worth"}},{"type":"Feature","geometry":{"type":"Point","coordinates":[-100.778002,29.359501]},"properties":{"name":"DLF Airport","municipality":"Del Rio"}},{"type":"Feature","geometry":{"type":"Point","coordinates":[-92.19360351559999,46.8420982361]},"properties":{"name":"Duluth International Airport","municipality":"Duluth"}},{"type":"Feature","geometry":{"type":"Point","coordinates":[-75.46600342,39.12950134]},"properties":{"name":"Dover Air Force Base","municipality":"Dover"}},{"type":"Feature","geometry":{"type":"Point","coordinates":[-93.66310119628906,41.534000396728516]},"properties":{"name":"Des Moines International Airport","municipality":"Des Moines"}},{"type":"Feature","geometry":{"type":"Point","coordinates":[-83.35340118408203,42.212398529052734]},"properties":{"name":"Detroit Metropolitan Wayne County Airport","municipality":"Detroit"}},{"type":"Feature","geometry":{"type":"Point","coordinates":[-99.854598999,32.4207992554]},"properties":{"name":"Dyess Air Force Base","municipality":"Abilene"}},{"type":"Feature","geometry":{"type":"Point","coordinates":[-117.884003,34.905399]},"properties":{"name":"Edwards Air Force Base","municipality":"Edwards"}},{"type":"Feature","geometry":{"type":"Point","coordinates":[-97.9164962769,36.339199066199996]},"properties":{"name":"Vance Air Force Base","municipality":"Enid"}},{"type":"Feature","geometry":{"type":"Point","coordinates":[-80.1738667488,42.0831270134]},"properties":{"name":"Erie International Tom Ridge Field","municipality":"Erie"}},{"type":"Feature","geometry":{"type":"Point","coordinates":[-74.168701171875,40.692501068115234]},"properties":{"name":"Newark Liberty International Airport","municipality":"Newark"}},{"type":"Feature","geometry":{"type":"Point","coordinates":[-84.0483016968,39.8260993958]},"properties":{"name":"Wright-Patterson Air Force Base","municipality":"Dayton"}},{"type":"Feature","geometry":{"type":"Point","coordinates":[-80.152702,26.072599]},"properties":{"name":"Fort Lauderdale Hollywood International Airport","municipality":"Fort Lauderdale"}},{"type":"Feature","geometry":{"type":"Point","coordinates":[-94.36740112304688,35.33660125732422]},"properties":{"name":"Fort Smith Regional Airport","municipality":"Fort Smith"}},{"type":"Feature","geometry":{"type":"Point","coordinates":[-97.362396,32.819801]},"properties":{"name":"Fort Worth Meacham International Airport","municipality":"Fort Worth"}},{"type":"Feature","geometry":{"type":"Point","coordinates":[-85.19509888,40.97850037]},"properties":{"name":"Fort Wayne International Airport","municipality":"Fort Wayne"}},{"type":"Feature","geometry":{"type":"Point","coordinates":[-117.53399658203125,47.61989974975586]},"properties":{"name":"Spokane International Airport","municipality":"Spokane"}},{"type":"Feature","geometry":{"type":"Point","coordinates":[-89.07009887695312,30.40730094909668]},"properties":{"name":"Gulfport Biloxi International Airport","municipality":"Gulfport"}},{"type":"Feature","geometry":{"type":"Point","coordinates":[-88.12960052490234,44.48509979248047]},"properties":{"name":"Austin Straubel International Airport","municipality":"Green Bay"}},{"type":"Feature","geometry":{"type":"Point","coordinates":[-77.96060181,35.33940125]},"properties":{"name":"Seymour Johnson Air Force Base","municipality":"Goldsboro"}},{"type":"Feature","geometry":{"type":"Point","coordinates":[-79.93730163574219,36.097801208496094]},"properties":{"name":"Piedmont Triad International Airport","municipality":"Greensboro"}},{"type":"Feature","geometry":{"type":"Point","coordinates":[-82.2189025879,34.8956985474]},"properties":{"name":"Greenville Spartanburg International Airport","municipality":"Greenville"}},{"type":"Feature","geometry":{"type":"Point","coordinates":[-86.1520996094,40.648101806599996]},"properties":{"name":"Grissom Air Reserve Base","municipality":"Peru"}},{"type":"Feature","geometry":{"type":"Point","coordinates":[-92.83899689,47.38660049]},"properties":{"name":"Range Regional Airport","municipality":"Hibbing"}},{"type":"Feature","geometry":{"type":"Point","coordinates":[-106.107002258,32.8525009155]},"properties":{"name":"Holloman Air Force Base","municipality":"Alamogordo"}},{"type":"Feature","geometry":{"type":"Point","coordinates":[-95.27890015,29.64539909]},"properties":{"name":"William P Hobby Airport","municipality":"Houston"}},{"type":"Feature","geometry":{"type":"Point","coordinates":[-86.775100708008,34.637199401855]},"properties":{"name":"Huntsville International Carl T Jones Field","municipality":"Huntsville"}},{"type":"Feature","geometry":{"type":"Point","coordinates":[-82.55799866,38.36669922]},"properties":{"name":"Tri-State/Milton J. Ferguson Field","municipality":"Huntington"}},{"type":"Feature","geometry":{"type":"Point","coordinates":[-77.45580292,38.94449997]},"properties":{"name":"Washington Dulles International Airport","municipality":"Washington"}},{"type":"Feature","geometry":{"type":"Point","coordinates":[-95.34140014648438,29.984399795532227]},"properties":{"name":"George Bush Intercontinental Houston Airport","municipality":"Houston"}},{"type":"Feature","geometry":{"type":"Point","coordinates":[-97.433098,37.649899]},"properties":{"name":"Wichita Eisenhower National Airport","municipality":"Wichita"}},{"type":"Feature","geometry":{"type":"Point","coordinates":[-86.294403,39.7173]},"properties":{"name":"Indianapolis International Airport","municipality":"Indianapolis"}},{"type":"Feature","geometry":{"type":"Point","coordinates":[-90.0758972168,32.3111991882]},"properties":{"name":"Jackson-Medgar Wiley Evers International Airport","municipality":"Jackson"}},{"type":"Feature","geometry":{"type":"Point","coordinates":[-81.68789672851562,30.49410057067871]},"properties":{"name":"Jacksonville International Airport","municipality":"Jacksonville"}},{"type":"Feature","geometry":{"type":"Point","coordinates":[-73.7789,40.639801]},"properties":{"name":"John F Kennedy International Airport","municipality":"New York"}},{"type":"Feature","geometry":{"type":"Point","coordinates":[-94.49829864501953,37.151798248291016]},"properties":{"name":"Joplin Regional Airport","municipality":"Joplin"}},{"type":"Feature","geometry":{"type":"Point","coordinates":[-115.1520004,36.08010101]},"properties":{"name":"McCarran International Airport","municipality":"Las Vegas"}},{"type":"Feature","geometry":{"type":"Point","coordinates":[-118.407997,33.942501]},"properties":{"name":"Los Angeles International Airport","municipality":"Los Angeles"}},{"type":"Feature","geometry":{"type":"Point","coordinates":[-101.822998,33.663601]},"properties":{"name":"Lubbock Preston Smith International Airport","municipality":"Lubbock"}},{"type":"Feature","geometry":{"type":"Point","coordinates":[-82.927803,39.813801]},"properties":{"name":"Rickenbacker International Airport","municipality":"Columbus"}},{"type":"Feature","geometry":{"type":"Point","coordinates":[-84.60590362548828,38.0364990234375]},"properties":{"name":"Blue Grass Airport","municipality":"Lexington"}},{"type":"Feature","geometry":{"type":"Point","coordinates":[-76.360496521,37.082901001]},"properties":{"name":"Langley Air Force Base","municipality":"Hampton"}},{"type":"Feature","geometry":{"type":"Point","coordinates":[-91.98760223,30.20529938]},"properties":{"name":"Lafayette Regional Airport","municipality":"Lafayette"}},{"type":"Feature","geometry":{"type":"Point","coordinates":[-73.872597,40.777199]},"properties":{"name":"La Guardia Airport","municipality":"New York"}},{"type":"Feature","geometry":{"type":"Point","coordinates":[-92.2242965698,34.729400634799994]},"properties":{"name":"Bill & Hillary Clinton National Airport/Adams Field","municipality":"Little Rock"}},{"type":"Feature","geometry":{"type":"Point","coordinates":[-99.2667007446,34.667098999]},"properties":{"name":"Altus Air Force Base","municipality":"Altus"}},{"type":"Feature","geometry":{"type":"Point","coordinates":[-112.383003235,33.534999847399995]},"properties":{"name":"Luke Air Force Base","municipality":"Glendale"}},{"type":"Feature","geometry":{"type":"Point","coordinates":[-84.07959747314453,43.532901763916016]},"properties":{"name":"MBS International Airport","municipality":"Saginaw"}},{"type":"Feature","geometry":{"type":"Point","coordinates":[-82.52120209,27.84930038]},"properties":{"name":"Mac Dill Air Force Base","municipality":"Tampa"}},{"type":"Feature","geometry":{"type":"Point","coordinates":[-94.713898,39.2976]},"properties":{"name":"Kansas City International Airport","municipality":"Kansas City"}},{"type":"Feature","geometry":{"type":"Point","coordinates":[-81.30899810791016,28.429399490356445]},"properties":{"name":"Orlando International Airport","municipality":"Orlando"}},{"type":"Feature","geometry":{"type":"Point","coordinates":[-87.752403,41.785999]},"properties":{"name":"Chicago Midway International Airport","municipality":"Chicago"}},{"type":"Feature","geometry":{"type":"Point","coordinates":[-89.97669982910156,35.04240036010742]},"properties":{"name":"Memphis International Airport","municipality":"Memphis"}},{"type":"Feature","geometry":{"type":"Point","coordinates":[-84.51629639,33.91540146]},"properties":{"name":"Dobbins Air Reserve Base","municipality":"Marietta"}},{"type":"Feature","geometry":{"type":"Point","coordinates":[-86.39399719,32.30059814]},"properties":{"name":"Montgomery Regional (Dannelly Field) Airport","municipality":"Montgomery"}},{"type":"Feature","geometry":{"type":"Point","coordinates":[-71.435699,42.932598]},"properties":{"name":"Manchester-Boston Regional Airport","municipality":"Manchester"}},{"type":"Feature","geometry":{"type":"Point","coordinates":[-80.29060363769531,25.79319953918457]},"properties":{"name":"Miami International Airport","municipality":"Miami"}},{"type":"Feature","geometry":{"type":"Point","coordinates":[-87.89659881591797,42.947200775146484]},"properties":{"name":"General Mitchell International Airport","municipality":"Milwaukee"}},{"type":"Feature","geometry":{"type":"Point","coordinates":[-90.50749969482422,41.44850158691406]},"properties":{"name":"Quad City International Airport","municipality":"Moline"}},{"type":"Feature","geometry":{"type":"Point","coordinates":[-92.0376968383789,32.51089859008789]},"properties":{"name":"Monroe Regional Airport","municipality":"Monroe"}},{"type":"Feature","geometry":{"type":"Point","coordinates":[-88.242797851562,30.691200256348]},"properties":{"name":"Mobile Regional Airport","municipality":"Mobile"}},{"type":"Feature","geometry":{"type":"Point","coordinates":[-89.3375015258789,43.13990020751953]},"properties":{"name":"Dane County Regional Truax Field","municipality":"Madison"}},{"type":"Feature","geometry":{"type":"Point","coordinates":[-93.221802,44.882]},"properties":{"name":"Minneapolis-St Paul International/Wold-Chamberlain Airport","municipality":"Minneapolis"}},{"type":"Feature","geometry":{"type":"Point","coordinates":[-90.25800323486328,29.99340057373047]},"properties":{"name":"Louis Armstrong New Orleans International Airport","municipality":"New Orleans"}},{"type":"Feature","geometry":{"type":"Point","coordinates":[-115.872002,43.043598]},"properties":{"name":"Mountain Home Air Force Base","municipality":"Mountain Home"}},{"type":"Feature","geometry":{"type":"Point","coordinates":[-122.221001,37.721298]},"properties":{"name":"Metropolitan Oakland International Airport","municipality":"Oakland"}},{"type":"Feature","geometry":{"type":"Point","coordinates":[-97.60070037841797,35.39310073852539]},"properties":{"name":"Will Rogers World Airport","municipality":"Oklahoma City"}},{"type":"Feature","geometry":{"type":"Point","coordinates":[-95.894096,41.3032]},"properties":{"name":"Eppley Airfield","municipality":"Omaha"}},{"type":"Feature","geometry":{"type":"Point","coordinates":[-117.60099792480469,34.055999755859375]},"properties":{"name":"Ontario International Airport","municipality":"Ontario"}},{"type":"Feature","geometry":{"type":"Point","coordinates":[-87.9048,41.9786]},"properties":{"name":"Chicago O'Hare International Airport","municipality":"Chicago"}},{"type":"Feature","geometry":{"type":"Point","coordinates":[-76.20120239257812,36.89459991455078]},"properties":{"name":"Norfolk International Airport","municipality":"Norfolk"}},{"type":"Feature","geometry":{"type":"Point","coordinates":[-85.57540130619999,30.0695991516]},"properties":{"name":"Tyndall Air Force Base","municipality":"Panama City"}},{"type":"Feature","geometry":{"type":"Point","coordinates":[-80.09559631347656,26.68320083618164]},"properties":{"name":"Palm Beach International Airport","municipality":"West Palm Beach"}},{"type":"Feature","geometry":{"type":"Point","coordinates":[-122.5979996,45.58869934]},"properties":{"name":"Portland International Airport","municipality":"Portland"}},{"type":"Feature","geometry":{"type":"Point","coordinates":[-76.49299622,37.13190079]},"properties":{"name":"Newport News Williamsburg International Airport","municipality":"Newport News"}},{"type":"Feature","geometry":{"type":"Point","coordinates":[-75.24109649658203,39.87189865112305]},"properties":{"name":"Philadelphia International Airport","municipality":"Philadelphia"}},{"type":"Feature","geometry":{"type":"Point","coordinates":[-112.01200103759766,33.43429946899414]},"properties":{"name":"Phoenix Sky Harbor International Airport","municipality":"Phoenix"}},{"type":"Feature","geometry":{"type":"Point","coordinates":[-89.6932983398,40.664199829100006]},"properties":{"name":"General Wayne A. Downing Peoria International Airport","municipality":"Peoria"}},{"type":"Feature","geometry":{"type":"Point","coordinates":[-80.23290253,40.49150085]},"properties":{"name":"Pittsburgh International Airport","municipality":"Pittsburgh"}},{"type":"Feature","geometry":{"type":"Point","coordinates":[-71.420403,41.732601]},"properties":{"name":"Theodore Francis Green State Airport","municipality":"Providence"}},{"type":"Feature","geometry":{"type":"Point","coordinates":[-70.309303,43.646198]},"properties":{"name":"Portland International Jetport","municipality":"Portland"}},{"type":"Feature","geometry":{"type":"Point","coordinates":[-78.7874984741211,35.877601623535156]},"properties":{"name":"Raleigh Durham International Airport","municipality":"Raleigh/Durham"}},{"type":"Feature","geometry":{"type":"Point","coordinates":[-89.09719848632812,42.19540023803711]},"properties":{"name":"Chicago Rockford International Airport","municipality":"Chicago/Rockford"}},{"type":"Feature","geometry":{"type":"Point","coordinates":[-77.3197021484375,37.50519943237305]},"properties":{"name":"Richmond International Airport","municipality":"Richmond"}},{"type":"Feature","geometry":{"type":"Point","coordinates":[-98.27890015,29.52969933]},"properties":{"name":"Randolph Air Force Base","municipality":"Universal City"}},{"type":"Feature","geometry":{"type":"Point","coordinates":[-119.76799774169922,39.49909973144531]},"properties":{"name":"Reno Tahoe International Airport","municipality":"Reno"}},{"type":"Feature","geometry":{"type":"Point","coordinates":[-79.975403,37.3255]},"properties":{"name":"Roanoke–Blacksburg Regional Airport","municipality":"Roanoke"}},{"type":"Feature","geometry":{"type":"Point","coordinates":[-77.67240142822266,43.118900299072266]},"properties":{"name":"Greater Rochester International Airport","municipality":"Rochester"}},{"type":"Feature","geometry":{"type":"Point","coordinates":[-92.5,43.90829849243164]},"properties":{"name":"Rochester International Airport","municipality":"Rochester"}},{"type":"Feature","geometry":{"type":"Point","coordinates":[-81.75520324707031,26.53619956970215]},"properties":{"name":"Southwest Florida International Airport","municipality":"Fort Myers"}},{"type":"Feature","geometry":{"type":"Point","coordinates":[-117.190002441,32.7336006165]},"properties":{"name":"San Diego International Airport","municipality":"San Diego"}},{"type":"Feature","geometry":{"type":"Point","coordinates":[-98.469803,29.533701]},"properties":{"name":"San Antonio International Airport","municipality":"San Antonio"}},{"type":"Feature","geometry":{"type":"Point","coordinates":[-81.20210266,32.12760162]},"properties":{"name":"Savannah Hilton Head International Airport","municipality":"Savannah"}},{"type":"Feature","geometry":{"type":"Point","coordinates":[-86.31729888916016,41.70869827270508]},"properties":{"name":"South Bend Regional Airport","municipality":"South Bend"}},{"type":"Feature","geometry":{"type":"Point","coordinates":[-85.736,38.1744]},"properties":{"name":"Louisville Muhammad Ali International Airport","municipality":"Louisville"}},{"type":"Feature","geometry":{"type":"Point","coordinates":[-122.308998,47.449001]},"properties":{"name":"Seattle Tacoma International Airport","municipality":"Seattle"}},{"type":"Feature","geometry":{"type":"Point","coordinates":[-81.23750305175781,28.777599334716797]},"properties":{"name":"Orlando Sanford International Airport","municipality":"Orlando"}},{"type":"Feature","geometry":{"type":"Point","coordinates":[-122.375,37.61899948120117]},"properties":{"name":"San Francisco International Airport","municipality":"San Francisco"}},{"type":"Feature","geometry":{"type":"Point","coordinates":[-93.38860321,37.24570084]},"properties":{"name":"Springfield Branson National Airport","municipality":"Springfield"}},{"type":"Feature","geometry":{"type":"Point","coordinates":[-121.929001,37.362598]},"properties":{"name":"Norman Y. Mineta San Jose International Airport","municipality":"San Jose"}},{"type":"Feature","geometry":{"type":"Point","coordinates":[-117.65599823,47.6151008606]},"properties":{"name":"Fairchild Air Force Base","municipality":"Spokane"}},{"type":"Feature","geometry":{"type":"Point","coordinates":[-111.97799682617188,40.78839874267578]},"properties":{"name":"Salt Lake City International Airport","municipality":"Salt Lake City"}},{"type":"Feature","geometry":{"type":"Point","coordinates":[-121.59100341796875,38.69540023803711]},"properties":{"name":"Sacramento International Airport","municipality":"Sacramento"}},{"type":"Feature","geometry":{"type":"Point","coordinates":[-117.8679962,33.67570114]},"properties":{"name":"John Wayne Airport-Orange County Airport","municipality":"Santa Ana"}},{"type":"Feature","geometry":{"type":"Point","coordinates":[-89.67790222,39.84410095]},"properties":{"name":"Abraham Lincoln Capital Airport","municipality":"Springfield"}},{"type":"Feature","geometry":{"type":"Point","coordinates":[-98.491898,33.9888]},"properties":{"name":"Sheppard Air Force Base-Wichita Falls Municipal Airport","municipality":"Wichita Falls"}},{"type":"Feature","geometry":{"type":"Point","coordinates":[-82.55439758300781,27.39539909362793]},"properties":{"name":"Sarasota Bradenton International Airport","municipality":"Sarasota/Bradenton"}},{"type":"Feature","geometry":{"type":"Point","coordinates":[-80.47059631,33.97269821]},"properties":{"name":"Shaw Air Force Base","municipality":"Sumter"}},{"type":"Feature","geometry":{"type":"Point","coordinates":[-90.370003,38.748697]},"properties":{"name":"St Louis Lambert International Airport","municipality":"St Louis"}},{"type":"Feature","geometry":{"type":"Point","coordinates":[-90.652000427246,38.662101745605]},"properties":{"name":"Spirit of St Louis Airport","municipality":"St Louis"}},{"type":"Feature","geometry":{"type":"Point","coordinates":[-121.92700195312,38.262699127197]},"properties":{"name":"Travis Air Force Base","municipality":"Fairfield"}},{"type":"Feature","geometry":{"type":"Point","coordinates":[-96.384399,42.402599]},"properties":{"name":"Sioux Gateway Airport/Brigadier General Bud Day Field","municipality":"Sioux City"}},{"type":"Feature","geometry":{"type":"Point","coordinates":[-76.1063003540039,43.11119842529297]},"properties":{"name":"Syracuse Hancock International Airport","municipality":"Syracuse"}},{"type":"Feature","geometry":{"type":"Point","coordinates":[-93.547897338867,38.73030090332]},"properties":{"name":"Whiteman Air Force Base","municipality":"Knob Noster"}},{"type":"Feature","geometry":{"type":"Point","coordinates":[-122.475997925,47.1376991272]},"properties":{"name":"McChord Air Force Base","municipality":"Tacoma"}},{"type":"Feature","geometry":{"type":"Point","coordinates":[-97.386596679688,35.414699554443]},"properties":{"name":"Tinker Air Force Base","municipality":"Oklahoma City"}},{"type":"Feature","geometry":{"type":"Point","coordinates":[-84.35030364990234,30.396499633789062]},"properties":{"name":"Tallahassee Regional Airport","municipality":"Tallahassee"}},{"type":"Feature","geometry":{"type":"Point","coordinates":[-83.80780029,41.58679962]},"properties":{"name":"Toledo Express Airport","municipality":"Toledo"}},{"type":"Feature","geometry":{"type":"Point","coordinates":[-82.533203125,27.975500106811523]},"properties":{"name":"Tampa International Airport","municipality":"Tampa"}},{"type":"Feature","geometry":{"type":"Point","coordinates":[-82.407401,36.475201]},"properties":{"name":"Tri-Cities Regional TN/VA Airport","municipality":"Bristol/Johnson/Kingsport"}},{"type":"Feature","geometry":{"type":"Point","coordinates":[-95.88809967041016,36.19839859008789]},"properties":{"name":"Tulsa International Airport","municipality":"Tulsa"}},{"type":"Feature","geometry":{"type":"Point","coordinates":[-110.938053,32.115004]},"properties":{"name":"Tucson International Airport / Morris Air National Guard Base","municipality":"Tucson"}},{"type":"Feature","geometry":{"type":"Point","coordinates":[-83.9940033,35.81100082]},"properties":{"name":"McGhee Tyson Airport","municipality":"Knoxville"}},{"type":"Feature","geometry":{"type":"Point","coordinates":[-120.583999634,34.7373008728]},"properties":{"name":"Vandenberg Air Force Base","municipality":"Lompoc"}},{"type":"Feature","geometry":{"type":"Point","coordinates":[-86.525398,30.4832]},"properties":{"name":"Destin-Ft Walton Beach Airport","municipality":"Valparaiso"}},{"type":"Feature","geometry":{"type":"Point","coordinates":[-83.5919036865,32.6400985718]},"properties":{"name":"Robins Air Force Base","municipality":"Warner Robins"}},{"type":"Feature","geometry":{"type":"Point","coordinates":[19.7206001282,41.4146995544]},"properties":{"name":"Tirana International Airport Mother Teresa","municipality":"Tirana"}},{"type":"Feature","geometry":{"type":"Point","coordinates":[27.515199661254883,42.56959915161133]},"properties":{"name":"Burgas Airport","municipality":"Burgas"}},{"type":"Feature","geometry":{"type":"Point","coordinates":[23.411436080932617,42.696693420410156]},"properties":{"name":"Sofia Airport","municipality":"Sofia"}},{"type":"Feature","geometry":{"type":"Point","coordinates":[27.8251,43.232101]},"properties":{"name":"Varna Airport","municipality":"Varna"}},{"type":"Feature","geometry":{"type":"Point","coordinates":[33.624900817871094,34.875099182128906]},"properties":{"name":"Larnaca International Airport","municipality":"Larnarca"}},{"type":"Feature","geometry":{"type":"Point","coordinates":[32.48569869995117,34.71799850463867]},"properties":{"name":"Paphos International Airport","municipality":"Paphos"}},{"type":"Feature","geometry":{"type":"Point","coordinates":[32.9879,34.590401]},"properties":{"name":"RAF Akrotiri","municipality":"Akrotiri"}},{"type":"Feature","geometry":{"type":"Point","coordinates":[16.0687999725,45.7429008484]},"properties":{"name":"Zagreb Airport","municipality":"Zagreb"}},{"type":"Feature","geometry":{"type":"Point","coordinates":[-0.5581560134887695,38.28219985961914]},"properties":{"name":"Alicante International Airport","municipality":"Alicante"}},{"type":"Feature","geometry":{"type":"Point","coordinates":[2.07846,41.2971]},"properties":{"name":"Barcelona International Airport","municipality":"Barcelona"}},{"type":"Feature","geometry":{"type":"Point","coordinates":[-3.56264,40.471926]},"properties":{"name":"Adolfo Suárez Madrid–Barajas Airport","municipality":"Madrid"}},{"type":"Feature","geometry":{"type":"Point","coordinates":[-4.499110221862793,36.67490005493164]},"properties":{"name":"Málaga Airport","municipality":"Málaga"}},{"type":"Feature","geometry":{"type":"Point","coordinates":[2.73881006241,39.551700592]},"properties":{"name":"Palma De Mallorca Airport","municipality":"Palma De Mallorca"}},{"type":"Feature","geometry":{"type":"Point","coordinates":[-8.415140151977539,42.89630126953125]},"properties":{"name":"Santiago de Compostela Airport","municipality":"Santiago de Compostela"}},{"type":"Feature","geometry":{"type":"Point","coordinates":[-0.715556025505,44.828300476100004]},"properties":{"name":"Bordeaux-Mérignac Airport","municipality":"Bordeaux/Mérignac"}},{"type":"Feature","geometry":{"type":"Point","coordinates":[1.36382,43.629101]},"properties":{"name":"Toulouse-Blagnac Airport","municipality":"Toulouse/Blagnac"}},{"type":"Feature","geometry":{"type":"Point","coordinates":[5.081111,45.725556]},"properties":{"name":"Lyon Saint-Exupéry Airport","municipality":"Lyon"}},{"type":"Feature","geometry":{"type":"Point","coordinates":[5.22142410278,43.439271922]},"properties":{"name":"Marseille Provence Airport","municipality":"Marseille"}},{"type":"Feature","geometry":{"type":"Point","coordinates":[7.215869903560001,43.6584014893]},"properties":{"name":"Nice-Côte d'Azur Airport","municipality":"Nice"}},{"type":"Feature","geometry":{"type":"Point","coordinates":[2.6325,47.053299]},"properties":{"name":"Avord (BA 702) Air Base","municipality":"Avord"}},{"type":"Feature","geometry":{"type":"Point","coordinates":[2.55,49.012798]},"properties":{"name":"Charles de Gaulle International Airport","municipality":"Paris"}},{"type":"Feature","geometry":{"type":"Point","coordinates":[2.3794444,48.7233333]},"properties":{"name":"Paris-Orly Airport","municipality":"Paris"}},{"type":"Feature","geometry":{"type":"Point","coordinates":[7.529167,47.59]},"properties":{"name":"EuroAirport Basel-Mulhouse-Freiburg Airport","municipality":"Bâle/Mulhouse"}},{"type":"Feature","geometry":{"type":"Point","coordinates":[23.9444999695,37.9364013672]},"properties":{"name":"Eleftherios Venizelos International Airport","municipality":"Athens"}},{"type":"Feature","geometry":{"type":"Point","coordinates":[25.180299758900002,35.3396987915]},"properties":{"name":"Heraklion International Nikos Kazantzakis Airport","municipality":"Heraklion"}},{"type":"Feature","geometry":{"type":"Point","coordinates":[22.97089958190918,40.51969909667969]},"properties":{"name":"Thessaloniki Macedonia International Airport","municipality":"Thessaloniki"}},{"type":"Feature","geometry":{"type":"Point","coordinates":[19.261093,47.42976]},"properties":{"name":"Budapest Liszt Ferenc International Airport","municipality":"Budapest"}},{"type":"Feature","geometry":{"type":"Point","coordinates":[16.760599,41.138901]},"properties":{"name":"Bari Karol Wojtyła Airport","municipality":"Bari"}},{"type":"Feature","geometry":{"type":"Point","coordinates":[15.0664,37.466801]},"properties":{"name":"Catania-Fontanarossa Airport","municipality":"Catania"}},{"type":"Feature","geometry":{"type":"Point","coordinates":[13.091,38.175999]},"properties":{"name":"Falcone–Borsellino Airport","municipality":"Palermo"}},{"type":"Feature","geometry":{"type":"Point","coordinates":[9.05428,39.251499]},"properties":{"name":"Cagliari Elmas Airport","municipality":"Cagliari"}},{"type":"Feature","geometry":{"type":"Point","coordinates":[8.72811,45.6306]},"properties":{"name":"Malpensa International Airport","municipality":"Milan"}},{"type":"Feature","geometry":{"type":"Point","coordinates":[9.70417,45.673901]},"properties":{"name":"Milan Bergamo Airport","municipality":"Bergamo"}},{"type":"Feature","geometry":{"type":"Point","coordinates":[7.64963,45.200802]},"properties":{"name":"Turin Airport","municipality":"Torino"}},{"type":"Feature","geometry":{"type":"Point","coordinates":[8.8375,44.4133]},"properties":{"name":"Genoa Cristoforo Colombo Airport","municipality":"Genova"}},{"type":"Feature","geometry":{"type":"Point","coordinates":[9.27674,45.445099]},"properties":{"name":"Milano Linate Airport","municipality":"Milan"}},{"type":"Feature","geometry":{"type":"Point","coordinates":[11.2887,44.5354]},"properties":{"name":"Bologna Guglielmo Marconi Airport","municipality":"Bologna"}},{"type":"Feature","geometry":{"type":"Point","coordinates":[12.1944,45.648399]},"properties":{"name":"Treviso-Sant'Angelo Airport","municipality":"Treviso"}},{"type":"Feature","geometry":{"type":"Point","coordinates":[10.8885,45.395699]},"properties":{"name":"Verona Villafranca Airport","municipality":"Verona"}},{"type":"Feature","geometry":{"type":"Point","coordinates":[12.3519,45.505299]},"properties":{"name":"Venice Marco Polo Airport","municipality":"Venice"}},{"type":"Feature","geometry":{"type":"Point","coordinates":[12.5949,41.7994]},"properties":{"name":"Ciampino–G. B. Pastine International Airport","municipality":"Rome"}},{"type":"Feature","geometry":{"type":"Point","coordinates":[12.2388889,41.8002778]},"properties":{"name":"Leonardo da Vinci–Fiumicino Airport","municipality":"Rome"}},{"type":"Feature","geometry":{"type":"Point","coordinates":[14.2908,40.886002]},"properties":{"name":"Naples International Airport","municipality":"Nápoli"}},{"type":"Feature","geometry":{"type":"Point","coordinates":[10.3927,43.683899]},"properties":{"name":"Pisa International Airport","municipality":"Pisa"}},{"type":"Feature","geometry":{"type":"Point","coordinates":[14.4576,46.223701]},"properties":{"name":"Ljubljana Jože Pučnik Airport","municipality":"Ljubljana"}},{"type":"Feature","geometry":{"type":"Point","coordinates":[14.26,50.1008]},"properties":{"name":"Václav Havel Airport Prague","municipality":"Prague"}},{"type":"Feature","geometry":{"type":"Point","coordinates":[34.88669967651367,32.01139831542969]},"properties":{"name":"Ben Gurion International Airport","municipality":"Tel Aviv"}},{"type":"Feature","geometry":{"type":"Point","coordinates":[34.93579864501953,29.94029998779297]},"properties":{"name":"Ovda International Airport","municipality":"Eilat"}},{"type":"Feature","geometry":{"type":"Point","coordinates":[14.4775,35.857498]},"properties":{"name":"Malta International Airport","municipality":"Valletta"}},{"type":"Feature","geometry":{"type":"Point","coordinates":[16.569700241089,48.110298156738]},"properties":{"name":"Vienna International Airport","municipality":"Vienna"}},{"type":"Feature","geometry":{"type":"Point","coordinates":[-7.96590995789,37.0144004822]},"properties":{"name":"Faro Airport","municipality":"Faro"}},{"type":"Feature","geometry":{"type":"Point","coordinates":[-27.090799,38.761799]},"properties":{"name":"Lajes Airport","municipality":"Praia da Vitória"}},{"type":"Feature","geometry":{"type":"Point","coordinates":[-25.6979007721,37.7411994934]},"properties":{"name":"João Paulo II Airport","municipality":"Ponta Delgada"}},{"type":"Feature","geometry":{"type":"Point","coordinates":[-8.68138980865,41.2481002808]},"properties":{"name":"Francisco de Sá Carneiro Airport","municipality":"Porto"}},{"type":"Feature","geometry":{"type":"Point","coordinates":[-9.13592,38.7813]},"properties":{"name":"Humberto Delgado Airport (Lisbon Portela Airport)","municipality":"Lisbon"}},{"type":"Feature","geometry":{"type":"Point","coordinates":[18.331499099731445,43.82460021972656]},"properties":{"name":"Sarajevo International Airport","municipality":"Sarajevo"}},{"type":"Feature","geometry":{"type":"Point","coordinates":[26.085,44.5711111]},"properties":{"name":"Henri Coandă International Airport","municipality":"Bucharest"}},{"type":"Feature","geometry":{"type":"Point","coordinates":[6.108950138092041,46.23809814453125]},"properties":{"name":"Geneva Cointrin International Airport","municipality":"Geneva"}},{"type":"Feature","geometry":{"type":"Point","coordinates":[8.54917,47.464699]},"properties":{"name":"Zürich Airport","municipality":"Zurich"}},{"type":"Feature","geometry":{"type":"Point","coordinates":[32.995098114,40.128101348899996]},"properties":{"name":"Esenboğa International Airport","municipality":"Ankara"}},{"type":"Feature","geometry":{"type":"Point","coordinates":[35.280399322499996,36.9822006226]},"properties":{"name":"Adana Airport","municipality":"Adana"}},{"type":"Feature","geometry":{"type":"Point","coordinates":[30.800501,36.898701]},"properties":{"name":"Antalya International Airport","municipality":"Antalya"}},{"type":"Feature","geometry":{"type":"Point","coordinates":[37.4786987305,36.9472007751]},"properties":{"name":"Gaziantep International Airport","municipality":"Gaziantep"}},{"type":"Feature","geometry":{"type":"Point","coordinates":[28.8146,40.976898]},"properties":{"name":"Atatürk International Airport","municipality":"Istanbul"}},{"type":"Feature","geometry":{"type":"Point","coordinates":[27.156999588,38.2924003601]},"properties":{"name":"Adnan Menderes International Airport","municipality":"İzmir"}},{"type":"Feature","geometry":{"type":"Point","coordinates":[28.7924995422,36.7131004333]},"properties":{"name":"Dalaman International Airport","municipality":"Dalaman"}},{"type":"Feature","geometry":{"type":"Point","coordinates":[41.17020034789999,39.9565010071]},"properties":{"name":"Erzurum International Airport","municipality":"Erzurum"}},{"type":"Feature","geometry":{"type":"Point","coordinates":[39.78969955444336,40.99509811401367]},"properties":{"name":"Trabzon International Airport","municipality":"Trabzon"}},{"type":"Feature","geometry":{"type":"Point","coordinates":[30.368400573699997,37.8554000854]},"properties":{"name":"Süleyman Demirel International Airport","municipality":"Isparta"}},{"type":"Feature","geometry":{"type":"Point","coordinates":[27.6643009186,37.25059890749999]},"properties":{"name":"Milas Bodrum International Airport","municipality":"Bodrum"}},{"type":"Feature","geometry":{"type":"Point","coordinates":[29.3092002869,40.898601532]},"properties":{"name":"Sabiha Gökçen International Airport","municipality":"Istanbul"}},{"type":"Feature","geometry":{"type":"Point","coordinates":[28.751944,41.275278]},"properties":{"name":"Istanbul Airport","municipality":"Istanbul"}},{"type":"Feature","geometry":{"type":"Point","coordinates":[21.621401,41.961601]},"properties":{"name":"Skopje International Airport","municipality":"Skopje"}},{"type":"Feature","geometry":{"type":"Point","coordinates":[20.3090991974,44.8184013367]},"properties":{"name":"Belgrade Nikola Tesla Airport","municipality":"Belgrade"}},{"type":"Feature","geometry":{"type":"Point","coordinates":[19.2519,42.359402]},"properties":{"name":"Podgorica Airport","municipality":"Podgorica"}},{"type":"Feature","geometry":{"type":"Point","coordinates":[17.21269989013672,48.17020034790039]},"properties":{"name":"M. R. Štefánik Airport","municipality":"Bratislava"}},{"type":"Feature","geometry":{"type":"Point","coordinates":[-68.36340332030001,18.567399978599997]},"properties":{"name":"Punta Cana International Airport","municipality":"Punta Cana"}},{"type":"Feature","geometry":{"type":"Point","coordinates":[-69.668899536133,18.42970085144]},"properties":{"name":"Las Américas International Airport","municipality":"Santo Domingo"}},{"type":"Feature","geometry":{"type":"Point","coordinates":[-90.527496,14.5833]},"properties":{"name":"La Aurora Airport","municipality":"Guatemala City"}},{"type":"Feature","geometry":{"type":"Point","coordinates":[-76.7874984741211,17.935699462890625]},"properties":{"name":"Norman Manley International Airport","municipality":"Kingston"}},{"type":"Feature","geometry":{"type":"Point","coordinates":[-99.75399780273438,16.757099151611328]},"properties":{"name":"General Juan N Alvarez International Airport","municipality":"Acapulco"}},{"type":"Feature","geometry":{"type":"Point","coordinates":[-103.31099700927734,20.521799087524414]},"properties":{"name":"Don Miguel Hidalgo Y Costilla International Airport","municipality":"Guadalajara"}},{"type":"Feature","geometry":{"type":"Point","coordinates":[-111.047996521,29.095899581900003]},"properties":{"name":"General Ignacio P. Garcia International Airport","municipality":"Hermosillo"}},{"type":"Feature","geometry":{"type":"Point","coordinates":[-99.072098,19.4363]},"properties":{"name":"Licenciado Benito Juarez International Airport","municipality":"Mexico City"}},{"type":"Feature","geometry":{"type":"Point","coordinates":[-100.107002258,25.7784996033]},"properties":{"name":"General Mariano Escobedo International Airport","municipality":"Monterrey"}},{"type":"Feature","geometry":{"type":"Point","coordinates":[-105.25399780273438,20.680099487304688]},"properties":{"name":"Licenciado Gustavo Díaz Ordaz International Airport","municipality":"Puerto Vallarta"}},{"type":"Feature","geometry":{"type":"Point","coordinates":[-109.72100067138672,23.15180015563965]},"properties":{"name":"Los Cabos International Airport","municipality":"San José del Cabo"}},{"type":"Feature","geometry":{"type":"Point","coordinates":[-116.97000122070312,32.541099548339844]},"properties":{"name":"General Abelardo L. Rodríguez International Airport","municipality":"Tijuana"}},{"type":"Feature","geometry":{"type":"Point","coordinates":[-86.8770980835,21.036500930800003]},"properties":{"name":"Cancún International Airport","municipality":"Cancún"}},{"type":"Feature","geometry":{"type":"Point","coordinates":[-79.3834991455,9.0713596344]},"properties":{"name":"Tocumen International Airport","municipality":"Tocumen"}},{"type":"Feature","geometry":{"type":"Point","coordinates":[-85.544403,10.5933]},"properties":{"name":"Daniel Oduber Quiros International Airport","municipality":"Liberia"}},{"type":"Feature","geometry":{"type":"Point","coordinates":[-89.055702,13.4409]},"properties":{"name":"Monseñor Óscar Arnulfo Romero International Airport","municipality":"San Salvador (San Luis Talpa)"}},{"type":"Feature","geometry":{"type":"Point","coordinates":[-82.40910339355469,22.989200592041016]},"properties":{"name":"José Martí International Airport","municipality":"Havana"}},{"type":"Feature","geometry":{"type":"Point","coordinates":[-81.435302734375,23.034400939941406]},"properties":{"name":"Juan Gualberto Gomez International Airport","municipality":"Varadero"}},{"type":"Feature","geometry":{"type":"Point","coordinates":[-81.3576965332,19.292800903299998]},"properties":{"name":"Owen Roberts International Airport","municipality":"Georgetown"}},{"type":"Feature","geometry":{"type":"Point","coordinates":[-77.466202,25.039]},"properties":{"name":"Lynden Pindling International Airport","municipality":"Nassau"}},{"type":"Feature","geometry":{"type":"Point","coordinates":[-88.30819702148438,17.539100646972656]},"properties":{"name":"Philip S. W. Goldson International Airport","municipality":"Belize City"}},{"type":"Feature","geometry":{"type":"Point","coordinates":[-159.805999756,-21.2026996613]},"properties":{"name":"Rarotonga International Airport","municipality":"Avarua"}},{"type":"Feature","geometry":{"type":"Point","coordinates":[-149.606995,-17.553699]},"properties":{"name":"Faa'a International Airport","municipality":"Papeete"}},{"type":"Feature","geometry":{"type":"Point","coordinates":[174.792007446,-37.008098602299995]},"properties":{"name":"Auckland International Airport","municipality":"Auckland"}},{"type":"Feature","geometry":{"type":"Point","coordinates":[172.53199768066406,-43.48939895629883]},"properties":{"name":"Christchurch International Airport","municipality":"Christchurch"}},{"type":"Feature","geometry":{"type":"Point","coordinates":[174.804992676,-41.3272018433]},"properties":{"name":"Wellington International Airport","municipality":"Wellington"}},{"type":"Feature","geometry":{"type":"Point","coordinates":[50.63359832763672,26.27079963684082]},"properties":{"name":"Bahrain International Airport","municipality":"Manama"}},{"type":"Feature","geometry":{"type":"Point","coordinates":[49.79790115356445,26.471200942993164]},"properties":{"name":"King Fahd International Airport","municipality":"Ad Dammam"}},{"type":"Feature","geometry":{"type":"Point","coordinates":[50.152000427199994,26.265399932900003]},"properties":{"name":"King Abdulaziz Air Base","municipality":""}},{"type":"Feature","geometry":{"type":"Point","coordinates":[39.156502,21.6796]},"properties":{"name":"King Abdulaziz International Airport","municipality":"Jeddah"}},{"type":"Feature","geometry":{"type":"Point","coordinates":[39.705101,24.5534]},"properties":{"name":"Prince Mohammad Bin Abdulaziz Airport","municipality":"Medina"}},{"type":"Feature","geometry":{"type":"Point","coordinates":[46.69879913330078,24.957599639892578]},"properties":{"name":"King Khaled International Airport","municipality":"Riyadh"}},{"type":"Feature","geometry":{"type":"Point","coordinates":[51.152198791503906,35.416099548339844]},"properties":{"name":"Imam Khomeini International Airport","municipality":"Tehran"}},{"type":"Feature","geometry":{"type":"Point","coordinates":[51.31340026855469,35.68920135498047]},"properties":{"name":"Mehrabad International Airport","municipality":"Tehran"}},{"type":"Feature","geometry":{"type":"Point","coordinates":[59.64099884033203,36.235198974609375]},"properties":{"name":"Mashhad International Airport","municipality":"Mashhad"}},{"type":"Feature","geometry":{"type":"Point","coordinates":[52.589802,29.5392]},"properties":{"name":"Shiraz Shahid Dastghaib International Airport","municipality":"Shiraz"}},{"type":"Feature","geometry":{"type":"Point","coordinates":[46.23500061035156,38.1338996887207]},"properties":{"name":"Tabriz International Airport","municipality":"Tabriz"}},{"type":"Feature","geometry":{"type":"Point","coordinates":[35.9931983948,31.7226009369]},"properties":{"name":"Queen Alia International Airport","municipality":"Amman"}},{"type":"Feature","geometry":{"type":"Point","coordinates":[47.96889877319336,29.226600646972656]},"properties":{"name":"Kuwait International Airport","municipality":"Kuwait City"}},{"type":"Feature","geometry":{"type":"Point","coordinates":[35.488399505615234,33.820899963378906]},"properties":{"name":"Beirut Rafic Hariri International Airport","municipality":"Beirut"}},{"type":"Feature","geometry":{"type":"Point","coordinates":[57.634167,19.501944]},"properties":{"name":"Duqm International Airport","municipality":"Duqm"}},{"type":"Feature","geometry":{"type":"Point","coordinates":[57.4875,23.640556]},"properties":{"name":"Rustaq Airport","municipality":"Al Masna'ah"}},{"type":"Feature","geometry":{"type":"Point","coordinates":[54.651100158691406,24.433000564575195]},"properties":{"name":"Abu Dhabi International Airport","municipality":"Abu Dhabi"}},{"type":"Feature","geometry":{"type":"Point","coordinates":[55.3643989563,25.2527999878]},"properties":{"name":"Dubai International Airport","municipality":"Dubai"}},{"type":"Feature","geometry":{"type":"Point","coordinates":[55.161389,24.896356]},"properties":{"name":"Al Maktoum International Airport","municipality":"Jebel Ali"}},{"type":"Feature","geometry":{"type":"Point","coordinates":[55.5172004699707,25.32859992980957]},"properties":{"name":"Sharjah International Airport","municipality":"Sharjah"}},{"type":"Feature","geometry":{"type":"Point","coordinates":[58.284400939941406,23.593299865722656]},"properties":{"name":"Muscat International Airport","municipality":"Muscat"}},{"type":"Feature","geometry":{"type":"Point","coordinates":[72.82566,33.549]},"properties":{"name":"Islamabad International Airport","municipality":"Islamabad"}},{"type":"Feature","geometry":{"type":"Point","coordinates":[74.3638916016,32.5355567932]},"properties":{"name":"Sialkot Airport","municipality":"Sialkot"}},{"type":"Feature","geometry":{"type":"Point","coordinates":[44.2346000671,33.262500762900004]},"properties":{"name":"Baghdad International Airport","municipality":"Baghdad"}},{"type":"Feature","geometry":{"type":"Point","coordinates":[47.66210174560547,30.549100875854492]},"properties":{"name":"Basrah International Airport","municipality":"Basrah"}},{"type":"Feature","geometry":{"type":"Point","coordinates":[37.22439956665039,36.18069839477539]},"properties":{"name":"Aleppo International Airport","municipality":"Aleppo"}},{"type":"Feature","geometry":{"type":"Point","coordinates":[36.51559829711914,33.4114990234375]},"properties":{"name":"Damascus International Airport","municipality":"Damascus"}},{"type":"Feature","geometry":{"type":"Point","coordinates":[35.948699951171875,35.401100158691406]},"properties":{"name":"Bassel Al-Assad International Airport","municipality":"Latakia"}},{"type":"Feature","geometry":{"type":"Point","coordinates":[51.608056,25.273056]},"properties":{"name":"Hamad International Airport","municipality":"Doha"}},{"type":"Feature","geometry":{"type":"Point","coordinates":[-147.8560028,64.81510162]},"properties":{"name":"Fairbanks International Airport","municipality":"Fairbanks"}},{"type":"Feature","geometry":{"type":"Point","coordinates":[-149.99600219726562,61.174400329589844]},"properties":{"name":"Ted Stevens Anchorage International Airport","municipality":"Anchorage"}},{"type":"Feature","geometry":{"type":"Point","coordinates":[144.796005249,13.4834003448]},"properties":{"name":"Antonio B. Won Pat International Airport","municipality":"Hagåtña, Guam International Airport"}},{"type":"Feature","geometry":{"type":"Point","coordinates":[124.456496,8.612203]},"properties":{"name":"Laguindingan Airport","municipality":"Cagayan de Oro City"}},{"type":"Feature","geometry":{"type":"Point","coordinates":[121.745853,18.182388]},"properties":{"name":"Northern Cagayan International Airport","municipality":"Lal-lo"}},{"type":"Feature","geometry":{"type":"Point","coordinates":[-157.924228,21.32062]},"properties":{"name":"Daniel K Inouye International Airport","municipality":"Honolulu"}},{"type":"Feature","geometry":{"type":"Point","coordinates":[50.999479,25.467722]},"properties":{"name":"Tamim Airbase","municipality":"Dukhan"}},{"type":"Feature","geometry":{"type":"Point","coordinates":[118.359001,24.4279]},"properties":{"name":"Kinmen Airport","municipality":"Shang-I"}},{"type":"Feature","geometry":{"type":"Point","coordinates":[120.3499984741211,22.57710075378418]},"properties":{"name":"Kaohsiung International Airport","municipality":"Kaohsiung City"}},{"type":"Feature","geometry":{"type":"Point","coordinates":[121.233002,25.0777]},"properties":{"name":"Taiwan Taoyuan International Airport","municipality":"Taipei"}},{"type":"Feature","geometry":{"type":"Point","coordinates":[140.386002,35.764702]},"properties":{"name":"Narita International Airport","municipality":"Tokyo / Narita"}},{"type":"Feature","geometry":{"type":"Point","coordinates":[135.24400329589844,34.42729949951172]},"properties":{"name":"Kansai International Airport","municipality":"Osaka"}},{"type":"Feature","geometry":{"type":"Point","coordinates":[141.69200134277344,42.77519989013672]},"properties":{"name":"New Chitose Airport","municipality":"Chitose / Tomakomai"}},{"type":"Feature","geometry":{"type":"Point","coordinates":[130.4510040283203,33.585899353027344]},"properties":{"name":"Fukuoka Airport","municipality":"Fukuoka"}},{"type":"Feature","geometry":{"type":"Point","coordinates":[130.718994140625,31.80340003967285]},"properties":{"name":"Kagoshima Airport","municipality":"Kagoshima"}},{"type":"Feature","geometry":{"type":"Point","coordinates":[136.80499267578125,34.8583984375]},"properties":{"name":"Chubu Centrair International Airport","municipality":"Tokoname"}},{"type":"Feature","geometry":{"type":"Point","coordinates":[138.18775177,34.7960434679]},"properties":{"name":"Mt. Fuji Shizuoka Airport","municipality":"Makinohara / Shimada"}},{"type":"Feature","geometry":{"type":"Point","coordinates":[135.43800354003906,34.785499572753906]},"properties":{"name":"Osaka International Airport","municipality":"Osaka"}},{"type":"Feature","geometry":{"type":"Point","coordinates":[139.779999,35.552299]},"properties":{"name":"Tokyo Haneda International Airport","municipality":"Ota, Tokyo"}},{"type":"Feature","geometry":{"type":"Point","coordinates":[139.34800720214844,35.74850082397461]},"properties":{"name":"Yokota Air Base","municipality":"Fussa"}},{"type":"Feature","geometry":{"type":"Point","coordinates":[126.382814,34.991406]},"properties":{"name":"Muan International Airport","municipality":"Piseo-ri (Muan)"}},{"type":"Feature","geometry":{"type":"Point","coordinates":[126.61599731445312,35.90380096435547]},"properties":{"name":"Kunsan Air Base","municipality":"Kunsan"}},{"type":"Feature","geometry":{"type":"Point","coordinates":[126.49299621582031,33.51129913330078]},"properties":{"name":"Jeju International Airport","municipality":"Jeju City"}},{"type":"Feature","geometry":{"type":"Point","coordinates":[128.93800354,35.1795005798]},"properties":{"name":"Gimhae International Airport","municipality":"Busan"}},{"type":"Feature","geometry":{"type":"Point","coordinates":[126.45099639892578,37.46910095214844]},"properties":{"name":"Incheon International Airport","municipality":"Seoul"}},{"type":"Feature","geometry":{"type":"Point","coordinates":[127.029999,37.090599]},"properties":{"name":"Osan Air Base","municipality":""}},{"type":"Feature","geometry":{"type":"Point","coordinates":[126.791,37.5583]},"properties":{"name":"Gimpo International Airport","municipality":"Seoul"}},{"type":"Feature","geometry":{"type":"Point","coordinates":[127.498741,36.717008]},"properties":{"name":"Cheongju International Airport/Cheongju Air Base (K-59/G-513)","municipality":"Cheongju"}},{"type":"Feature","geometry":{"type":"Point","coordinates":[127.646003723,26.1958007812]},"properties":{"name":"Naha Airport","municipality":"Naha"}},{"type":"Feature","geometry":{"type":"Point","coordinates":[127.767998,26.3556]},"properties":{"name":"Kadena Air Base","municipality":""}},{"type":"Feature","geometry":{"type":"Point","coordinates":[120.559998,15.186]},"properties":{"name":"Diosdado Macapagal International Airport","municipality":"Angeles/Mabalacat"}},{"type":"Feature","geometry":{"type":"Point","coordinates":[121.019997,14.5086]},"properties":{"name":"Ninoy Aquino International Airport","municipality":"Pasay / Parañaque, Metro Manila"}},{"type":"Feature","geometry":{"type":"Point","coordinates":[125.64600372314453,7.1255202293396]},"properties":{"name":"Francisco Bangoy International Airport","municipality":"Davao City"}},{"type":"Feature","geometry":{"type":"Point","coordinates":[123.97899627686,10.307499885559]},"properties":{"name":"Mactan Cebu International Airport","municipality":"Lapu-Lapu City"}},{"type":"Feature","geometry":{"type":"Point","coordinates":[39.44499969482422,52.6349983215332]},"properties":{"name":"Lipetsk Air Base","municipality":"Lipetsk"}},{"type":"Feature","geometry":{"type":"Point","coordinates":[45.698601,43.388302]},"properties":{"name":"Grozny North Airport","municipality":"Grozny"}},{"type":"Feature","geometry":{"type":"Point","coordinates":[128.445007,51.169997]},"properties":{"name":"Ukrainka Air Base","municipality":"Belogorsk"}},{"type":"Feature","geometry":{"type":"Point","coordinates":[33.463901519775,68.151802062988]},"properties":{"name":"Olenya Air Base","municipality":"Olenegorsk"}},{"type":"Feature","geometry":{"type":"Point","coordinates":[-58.5358,-34.8222]},"properties":{"name":"Ministro Pistarini International Airport","municipality":"Buenos Aires"}},{"type":"Feature","geometry":{"type":"Point","coordinates":[-48.4762992859,-1.3792500495900002]},"properties":{"name":"Val de Cans/Júlio Cezar Ribeiro International Airport","municipality":"Belém"}},{"type":"Feature","geometry":{"type":"Point","coordinates":[-47.920834,-15.869167]},"properties":{"name":"Presidente Juscelino Kubitschek International Airport","municipality":"Brasília"}},{"type":"Feature","geometry":{"type":"Point","coordinates":[-43.97194290161133,-19.62444305419922]},"properties":{"name":"Tancredo Neves International Airport","municipality":"Belo Horizonte"}},{"type":"Feature","geometry":{"type":"Point","coordinates":[-49.1758003235,-25.5284996033]},"properties":{"name":"Afonso Pena Airport","municipality":"Curitiba"}},{"type":"Feature","geometry":{"type":"Point","coordinates":[-60.049702,-3.03861]},"properties":{"name":"Eduardo Gomes International Airport","municipality":"Manaus"}},{"type":"Feature","geometry":{"type":"Point","coordinates":[-48.5525016784668,-27.670278549194336]},"properties":{"name":"Hercílio Luz International Airport","municipality":"Florianópolis"}},{"type":"Feature","geometry":{"type":"Point","coordinates":[-43.2505569458,-22.8099994659]},"properties":{"name":"Rio Galeão – Tom Jobim International Airport","municipality":"Rio De Janeiro"}},{"type":"Feature","geometry":{"type":"Point","coordinates":[-46.47305679321289,-23.435556411743164]},"properties":{"name":"Guarulhos - Governador André Franco Montoro International Airport","municipality":"São Paulo"}},{"type":"Feature","geometry":{"type":"Point","coordinates":[-35.376111,-5.768056]},"properties":{"name":"Governador Aluízio Alves International Airport","municipality":"Natal"}},{"type":"Feature","geometry":{"type":"Point","coordinates":[-46.65638732910156,-23.626110076904297]},"properties":{"name":"Congonhas Airport","municipality":"São Paulo"}},{"type":"Feature","geometry":{"type":"Point","coordinates":[-38.3224983215,-12.9086112976]},"properties":{"name":"Deputado Luiz Eduardo Magalhães International Airport","municipality":"Salvador"}},{"type":"Feature","geometry":{"type":"Point","coordinates":[-70.78579711914062,-33.393001556396484]},"properties":{"name":"Comodoro Arturo Merino Benítez International Airport","municipality":"Santiago"}},{"type":"Feature","geometry":{"type":"Point","coordinates":[-78.615799,-0.906833]},"properties":{"name":"Cotopaxi International Airport","municipality":"Latacunga"}},{"type":"Feature","geometry":{"type":"Point","coordinates":[-78.3575,-0.129166666667]},"properties":{"name":"Mariscal Sucre International Airport","municipality":"Quito"}},{"type":"Feature","geometry":{"type":"Point","coordinates":[-74.1469,4.70159]},"properties":{"name":"El Dorado International Airport","municipality":"Bogota"}},{"type":"Feature","geometry":{"type":"Point","coordinates":[-63.135399,-17.6448]},"properties":{"name":"Viru Viru International Airport","municipality":"Santa Cruz"}},{"type":"Feature","geometry":{"type":"Point","coordinates":[-77.114305,-12.0219]},"properties":{"name":"Jorge Chávez International Airport","municipality":"Lima"}},{"type":"Feature","geometry":{"type":"Point","coordinates":[-71.9387969971,-13.535699844400002]},"properties":{"name":"Alejandro Velasco Astete International Airport","municipality":"Cusco"}},{"type":"Feature","geometry":{"type":"Point","coordinates":[-56.0308,-34.838402]},"properties":{"name":"Carrasco International /General C L Berisso Airport","municipality":"Montevideo"}},{"type":"Feature","geometry":{"type":"Point","coordinates":[-64.692222,10.111111]},"properties":{"name":"General José Antonio Anzoategui International Airport","municipality":"Barcelona"}},{"type":"Feature","geometry":{"type":"Point","coordinates":[-66.991222,10.601194]},"properties":{"name":"Simón Bolívar International Airport","municipality":"Caracas"}},{"type":"Feature","geometry":{"type":"Point","coordinates":[-61.531799,16.265301]},"properties":{"name":"Pointe-à-Pitre Le Raizet","municipality":"Pointe-à-Pitre"}},{"type":"Feature","geometry":{"type":"Point","coordinates":[-66.0018005371,18.4393997192]},"properties":{"name":"Luis Munoz Marin International Airport","municipality":"San Juan"}},{"type":"Feature","geometry":{"type":"Point","coordinates":[10.438611,36.075833]},"properties":{"name":"Enfidha - Hammamet International Airport","municipality":"Enfidha"}},{"type":"Feature","geometry":{"type":"Point","coordinates":[-63.1088981628,18.041000366200002]},"properties":{"name":"Princess Juliana International Airport","municipality":"Saint Martin"}},{"type":"Feature","geometry":{"type":"Point","coordinates":[35.069381,36.895545]},"properties":{"name":"Çukurova Airport","municipality":"Tarsus"}},{"type":"Feature","geometry":{"type":"Point","coordinates":[77.04049682617188,43.35210037231445]},"properties":{"name":"Almaty Airport","municipality":"Almaty"}},{"type":"Feature","geometry":{"type":"Point","coordinates":[71.46690368652344,51.02220153808594]},"properties":{"name":"Astana International Airport","municipality":"Astana"}},{"type":"Feature","geometry":{"type":"Point","coordinates":[74.4776000977,43.0612983704]},"properties":{"name":"Manas International Airport","municipality":"Bishkek"}},{"type":"Feature","geometry":{"type":"Point","coordinates":[73.33439636230469,49.670799255371094]},"properties":{"name":"Sary-Arka Airport","municipality":"Karaganda"}},{"type":"Feature","geometry":{"type":"Point","coordinates":[50.04669952392578,40.467498779296875]},"properties":{"name":"Heydar Aliyev International Airport","municipality":"Baku"}},{"type":"Feature","geometry":{"type":"Point","coordinates":[44.3959007263,40.1473007202]},"properties":{"name":"Zvartnots International Airport","municipality":"Yerevan"}},{"type":"Feature","geometry":{"type":"Point","coordinates":[44.95470047,41.6692008972]},"properties":{"name":"Tbilisi International Airport","municipality":"Tbilisi"}},{"type":"Feature","geometry":{"type":"Point","coordinates":[135.18800354004,48.52799987793]},"properties":{"name":"Khabarovsk-Novy Airport","municipality":"Khabarovsk"}},{"type":"Feature","geometry":{"type":"Point","coordinates":[30.894699096679688,50.345001220703125]},"properties":{"name":"Boryspil International Airport","municipality":"Kiev"}},{"type":"Feature","geometry":{"type":"Point","coordinates":[33.975101,45.0522]},"properties":{"name":"Simferopol International Airport","municipality":"Simferopol"}},{"type":"Feature","geometry":{"type":"Point","coordinates":[36.290000915527344,49.924800872802734]},"properties":{"name":"Kharkiv International Airport","municipality":"Kharkiv"}},{"type":"Feature","geometry":{"type":"Point","coordinates":[30.67650032043457,46.42679977416992]},"properties":{"name":"Odessa International Airport","municipality":"Odessa"}},{"type":"Feature","geometry":{"type":"Point","coordinates":[30.262500762939453,59.80030059814453]},"properties":{"name":"Pulkovo Airport","municipality":"St. Petersburg"}},{"type":"Feature","geometry":{"type":"Point","coordinates":[28.030700683594,53.882499694824]},"properties":{"name":"Minsk National Airport","municipality":"Minsk"}},{"type":"Feature","geometry":{"type":"Point","coordinates":[92.493301,56.172901]},"properties":{"name":"Yemelyanovo Airport","municipality":"Krasnoyarsk"}},{"type":"Feature","geometry":{"type":"Point","coordinates":[82.650703430176,55.012599945068]},"properties":{"name":"Tolmachevo Airport","municipality":"Novosibirsk"}},{"type":"Feature","geometry":{"type":"Point","coordinates":[39.924722,47.493888]},"properties":{"name":"Platov International Airport","municipality":"Rostov-on-Don"}},{"type":"Feature","geometry":{"type":"Point","coordinates":[39.9566,43.449902]},"properties":{"name":"Sochi International Airport","municipality":"Sochi"}},{"type":"Feature","geometry":{"type":"Point","coordinates":[60.802700042725,56.743099212646]},"properties":{"name":"Koltsovo Airport","municipality":"Yekaterinburg"}},{"type":"Feature","geometry":{"type":"Point","coordinates":[58.361,37.986801]},"properties":{"name":"Ashgabat International Airport","municipality":"Ashgabat"}},{"type":"Feature","geometry":{"type":"Point","coordinates":[69.2811965942,41.257900238]},"properties":{"name":"Tashkent International Airport","municipality":"Tashkent"}},{"type":"Feature","geometry":{"type":"Point","coordinates":[38.150002,55.553299]},"properties":{"name":"Zhukovsky International Airport","municipality":"Moscow"}},{"type":"Feature","geometry":{"type":"Point","coordinates":[37.90629959106445,55.40879821777344]},"properties":{"name":"Domodedovo International Airport","municipality":"Moscow"}},{"type":"Feature","geometry":{"type":"Point","coordinates":[37.4146,55.972599]},"properties":{"name":"Sheremetyevo International Airport","municipality":"Moscow"}},{"type":"Feature","geometry":{"type":"Point","coordinates":[37.2615013123,55.5914993286]},"properties":{"name":"Vnukovo International Airport","municipality":"Moscow"}},{"type":"Feature","geometry":{"type":"Point","coordinates":[49.278701782227,55.606201171875]},"properties":{"name":"Kazan International Airport","municipality":"Kazan"}},{"type":"Feature","geometry":{"type":"Point","coordinates":[49.13330078125,55.86669921875]},"properties":{"name":"Borisoglebskoye Airport","municipality":"Kazan"}},{"type":"Feature","geometry":{"type":"Point","coordinates":[55.874401092529,54.557498931885]},"properties":{"name":"Ufa International Airport","municipality":"Ufa"}},{"type":"Feature","geometry":{"type":"Point","coordinates":[50.16429901123,53.504901885986]},"properties":{"name":"Kurumoch International Airport","municipality":"Samara"}},{"type":"Feature","geometry":{"type":"Point","coordinates":[72.8678970337,19.0886993408]},"properties":{"name":"Chhatrapati Shivaji International Airport","municipality":"Mumbai"}},{"type":"Feature","geometry":{"type":"Point","coordinates":[73.8313980103,15.3808002472]},"properties":{"name":"Dabolim Airport","municipality":"Vasco da Gama"}},{"type":"Feature","geometry":{"type":"Point","coordinates":[79.88410186767578,7.180759906768799]},"properties":{"name":"Bandaranaike International Colombo Airport","municipality":"Colombo"}},{"type":"Feature","geometry":{"type":"Point","coordinates":[81.124128,6.284467]},"properties":{"name":"Mattala Rajapaksa International Airport","municipality":""}},{"type":"Feature","geometry":{"type":"Point","coordinates":[104.84400177001953,11.546600341796875]},"properties":{"name":"Phnom Penh International Airport","municipality":"Phnom Penh"}},{"type":"Feature","geometry":{"type":"Point","coordinates":[103.81300354,13.410699844400002]},"properties":{"name":"Siem Reap International Airport","municipality":"Siem Reap"}},{"type":"Feature","geometry":{"type":"Point","coordinates":[88.44670104980469,22.654699325561523]},"properties":{"name":"Netaji Subhash Chandra Bose International Airport","municipality":"Kolkata"}},{"type":"Feature","geometry":{"type":"Point","coordinates":[90.397783,23.843347]},"properties":{"name":"Hazrat Shahjalal International Airport","municipality":"Dhaka"}},{"type":"Feature","geometry":{"type":"Point","coordinates":[113.915001,22.308901]},"properties":{"name":"Hong Kong International Airport","municipality":"Hong Kong"}},{"type":"Feature","geometry":{"type":"Point","coordinates":[74.7973022461,31.7096004486]},"properties":{"name":"Sri Guru Ram Dass Jee International Airport","municipality":"Amritsar"}},{"type":"Feature","geometry":{"type":"Point","coordinates":[77.103104,28.5665]},"properties":{"name":"Indira Gandhi International Airport","municipality":"New Delhi"}},{"type":"Feature","geometry":{"type":"Point","coordinates":[113.592003,22.149599]},"properties":{"name":"Macau International Airport","municipality":"Macau"}},{"type":"Feature","geometry":{"type":"Point","coordinates":[85.3591,27.6966]},"properties":{"name":"Tribhuvan International Airport","municipality":"Kathmandu"}},{"type":"Feature","geometry":{"type":"Point","coordinates":[77.706299,13.1979]},"properties":{"name":"Kempegowda International Airport","municipality":"Bangalore"}},{"type":"Feature","geometry":{"type":"Point","coordinates":[76.401901,10.152]},"properties":{"name":"Cochin International Airport","municipality":"Kochi"}},{"type":"Feature","geometry":{"type":"Point","coordinates":[75.95529937740001,11.1367998123]},"properties":{"name":"Calicut International Airport","municipality":"Calicut"}},{"type":"Feature","geometry":{"type":"Point","coordinates":[78.429855,17.231318]},"properties":{"name":"Rajiv Gandhi International Airport","municipality":"Hyderabad"}},{"type":"Feature","geometry":{"type":"Point","coordinates":[80.16929626464844,12.990005493164062]},"properties":{"name":"Chennai International Airport","municipality":"Chennai"}},{"type":"Feature","geometry":{"type":"Point","coordinates":[76.9200973511,8.48211956024]},"properties":{"name":"Trivandrum International Airport","municipality":"Thiruvananthapuram"}},{"type":"Feature","geometry":{"type":"Point","coordinates":[73.52909851074219,4.191830158233643]},"properties":{"name":"Malé International Airport","municipality":"Malé"}},{"type":"Feature","geometry":{"type":"Point","coordinates":[100.607002258,13.9125995636]},"properties":{"name":"Don Mueang International Airport","municipality":"Bangkok"}},{"type":"Feature","geometry":{"type":"Point","coordinates":[100.74700164794922,13.681099891662598]},"properties":{"name":"Suvarnabhumi Airport","municipality":"Bangkok"}},{"type":"Feature","geometry":{"type":"Point","coordinates":[98.962600708,18.766799926799997]},"properties":{"name":"Chiang Mai International Airport","municipality":"Chiang Mai"}},{"type":"Feature","geometry":{"type":"Point","coordinates":[98.316902,8.1132]},"properties":{"name":"Phuket International Airport","municipality":"Phuket"}},{"type":"Feature","geometry":{"type":"Point","coordinates":[108.1989974975586,16.043899536132812]},"properties":{"name":"Da Nang International Airport","municipality":"Da Nang"}},{"type":"Feature","geometry":{"type":"Point","coordinates":[105.80699920654297,21.221200942993164]},"properties":{"name":"Noi Bai International Airport","municipality":"Hanoi"}},{"type":"Feature","geometry":{"type":"Point","coordinates":[106.652000427,10.8187999725]},"properties":{"name":"Tan Son Nhat International Airport","municipality":"Ho Chi Minh City"}},{"type":"Feature","geometry":{"type":"Point","coordinates":[95.97789764404297,21.702199935913086]},"properties":{"name":"Mandalay International Airport","municipality":"Mandalay"}},{"type":"Feature","geometry":{"type":"Point","coordinates":[96.1332015991,16.907300949099998]},"properties":{"name":"Yangon International Airport","municipality":"Yangon"}},{"type":"Feature","geometry":{"type":"Point","coordinates":[119.55400085449219,-5.061629772186279]},"properties":{"name":"Hasanuddin International Airport","municipality":"Ujung Pandang-Celebes Island"}},{"type":"Feature","geometry":{"type":"Point","coordinates":[115.16699981689,-8.7481698989868]},"properties":{"name":"Ngurah Rai (Bali) International Airport","municipality":"Denpasar-Bali Island"}},{"type":"Feature","geometry":{"type":"Point","coordinates":[140.5160064698,-2.5769500733]},"properties":{"name":"Sentani International Airport","municipality":"Jayapura-Papua Island"}},{"type":"Feature","geometry":{"type":"Point","coordinates":[112.78700256347656,-7.3798298835754395]},"properties":{"name":"Juanda International Airport","municipality":"Surabaya"}},{"type":"Feature","geometry":{"type":"Point","coordinates":[131.287,-0.894]},"properties":{"name":"Dominique Edward Osok Airport","municipality":"Sorong-Papua Island"}},{"type":"Feature","geometry":{"type":"Point","coordinates":[114.9280014038086,4.944200038909912]},"properties":{"name":"Brunei International Airport","municipality":"Bandar Seri Begawan"}},{"type":"Feature","geometry":{"type":"Point","coordinates":[106.65599823,-6.1255698204]},"properties":{"name":"Soekarno-Hatta International Airport","municipality":"Jakarta"}},{"type":"Feature","geometry":{"type":"Point","coordinates":[98.885278,3.642222]},"properties":{"name":"Kualanamu International Airport","municipality":""}},{"type":"Feature","geometry":{"type":"Point","coordinates":[101.70999908447,2.745579957962]},"properties":{"name":"Kuala Lumpur International Airport","municipality":"Kuala Lumpur"}},{"type":"Feature","geometry":{"type":"Point","coordinates":[103.994003,1.35019]},"properties":{"name":"Singapore Changi Airport","municipality":"Singapore"}},{"type":"Feature","geometry":{"type":"Point","coordinates":[153.11700439453125,-27.384199142456055]},"properties":{"name":"Brisbane International Airport","municipality":"Brisbane"}},{"type":"Feature","geometry":{"type":"Point","coordinates":[144.843002,-37.673302]},"properties":{"name":"Melbourne International Airport","municipality":"Melbourne"}},{"type":"Feature","geometry":{"type":"Point","coordinates":[120.987222,37.657222]},"properties":{"name":"Yantai Penglai International Airport","municipality":"Yantai"}},{"type":"Feature","geometry":{"type":"Point","coordinates":[138.531006,-34.945]},"properties":{"name":"Adelaide International Airport","municipality":"Adelaide"}},{"type":"Feature","geometry":{"type":"Point","coordinates":[115.96700286865234,-31.94029998779297]},"properties":{"name":"Perth International Airport","municipality":"Perth"}},{"type":"Feature","geometry":{"type":"Point","coordinates":[149.19500732421875,-35.30690002441406]},"properties":{"name":"Canberra International Airport","municipality":"Canberra"}},