{"type":"FeatureCollection","features":[{"type":"Feature","geometry":{"type":"Point","coordinates":[9.39789295,54.75848402]},"properties":{"STRECKE_NR":1000,"RICHTUNG":"0","KM_I":117290016,"KM_L":"172.9 + 16","BEZEICHNUNG":"Flensburg Weiche","STELLE_ART":"Bf","KUERZEL":"AFW","GK_R_DGN":3525691.331,"GK_H_DGN":6069974.991}},{"type":"Feature","geometry":{"type":"Point","coordinates":[9.43598426,54.7739873]},"properties":{"STRECKE_NR":1005,"RICHTUNG":"0","KM_I":100000000,"KM_L":"0.0 + 0","BEZEICHNUNG":"Flensburg","STELLE_ART":"Bf","KUERZEL":"AF","GK_R_DGN":3528132.808,"GK_H_DGN":6071715.352}},{"type":"Feature","geometry":{"type":"Point","coordinates":[9.05489896,54.47231461]},"properties":{"STRECKE_NR":1011,"RICHTUNG":"0","KM_I":102620091,"KM_L":"26.2 + 91","BEZEICHNUNG":"Husum","STELLE_ART":"Bf","KUERZEL":"AHM","GK_R_DGN":3503635.17,"GK_H_DGN":6038048.565}},{"type":"Feature","geometry":{"type":"Point","coordinates":[9.05485033,54.47222391]},"properties":{"STRECKE_NR":1012,"RICHTUNG":"0","KM_I":104900086,"KM_L":"49.0 + 86","BEZEICHNUNG":"Husum","STELLE_ART":"Bf","KUERZEL":"AHM","GK_R_DGN":3503632.025,"GK_H_DGN":6038038.466}},{"type":"Feature","geometry":{"type":"Point","coordinates":[10.09076172,54.3490387]},"properties":{"STRECKE_NR":1020,"RICHTUNG":"0","KM_I":100770050,"KM_L":"7.7 + 50","BEZEICHNUNG":"Suchsdorf","STELLE_ART":"Bf","KUERZEL":"ASU","GK_R_DGN":3571002.097,"GK_H_DGN":6024873.725}},{"type":"Feature","geometry":{"type":"Point","coordinates":[10.02877396,54.37075068]},"properties":{"STRECKE_NR":1020,"RICHTUNG":"0","KM_I":101370000,"KM_L":"13.7 + 0","BEZEICHNUNG":"Neuwittenbek","STELLE_ART":"Bf","KUERZEL":"ANW","GK_R_DGN":3566936.257,"GK_H_DGN":6027229.796}},{"type":"Feature","geometry":{"type":"Point","coordinates":[9.97864485,54.40987554]},"properties":{"STRECKE_NR":1020,"RICHTUNG":"0","KM_I":101910049,"KM_L":"19.1 + 49","BEZEICHNUNG":"Gettorf","STELLE_ART":"Bf","KUERZEL":"AGF","GK_R_DGN":3563617.979,"GK_H_DGN":6031538.251}},{"type":"Feature","geometry":{"type":"Point","coordinates":[9.83476629,54.46789424]},"properties":{"STRECKE_NR":1020,"RICHTUNG":"0","KM_I":103100097,"KM_L":"31.0 + 97","BEZEICHNUNG":"Eckernförde","STELLE_ART":"Bf","KUERZEL":"AEC","GK_R_DGN":3554199.841,"GK_H_DGN":6037876.008}},{"type":"Feature","geometry":{"type":"Point","coordinates":[9.77121319,54.63670267]},"properties":{"STRECKE_NR":1020,"RICHTUNG":"0","KM_I":105130034,"KM_L":"51.3 + 34","BEZEICHNUNG":"Süderbrarup","STELLE_ART":"Bf","KUERZEL":"ASUE","GK_R_DGN":3549873.269,"GK_H_DGN":6056619.297}},{"type":"Feature","geometry":{"type":"Point","coordinates":[9.66929042,54.71683049]},"properties":{"STRECKE_NR":1020,"RICHTUNG":"0","KM_I":106250003,"KM_L":"62.5 + 3","BEZEICHNUNG":"Sörup","STELLE_ART":"Bf","KUERZEL":"ASOE","GK_R_DGN":3543207.206,"GK_H_DGN":6065471.207}},{"type":"Feature","geometry":{"type":"Point","coordinates":[9.43626842,54.77430041]},"properties":{"STRECKE_NR":1020,"RICHTUNG":"0","KM_I":108060043,"KM_L":"80.6 + 43","BEZEICHNUNG":"Flensburg","STELLE_ART":"Bf","KUERZEL":"AF","GK_R_DGN":3528150.877,"GK_H_DGN":6071750.32}},{"type":"Feature","geometry":{"type":"Point","coordinates":[10.13133244,54.31489643]},"properties":{"STRECKE_NR":1022,"RICHTUNG":"0","KM_I":100000094,"KM_L":"0.0 + 94","BEZEICHNUNG":"Kiel Hbf","STELLE_ART":"Bf","KUERZEL":"AK","GK_R_DGN":3573701.043,"GK_H_DGN":6021115.14}},{"type":"Feature","geometry":{"type":"Point","coordinates":[10.09990379,54.30866143]},"properties":{"STRECKE_NR":1022,"RICHTUNG":"0","KM_I":100290000,"KM_L":"2.9 + 0","BEZEICHNUNG":"Kiel-Hassee Cittipark","STELLE_ART":"Bf","KUERZEL":"AKH","GK_R_DGN":3571666.628,"GK_H_DGN":6020388.812}},{"type":"Feature","geometry":{"type":"Point","coordinates":[9.9473365,54.30985996]},"properties":{"STRECKE_NR":1022,"RICHTUNG":"0","KM_I":101380084,"KM_L":"13.8 + 84","BEZEICHNUNG":"Felde-Brandsbek","STELLE_ART":"Bf","KUERZEL":"AFEB","GK_R_DGN":3561734.839,"GK_H_DGN":6020378.112}},{"type":"Feature","geometry":{"type":"Point","coordinates":[9.71982705,54.2833738]},"properties":{"STRECKE_NR":1022,"RICHTUNG":"0","KM_I":103090055,"KM_L":"30.9 + 55","BEZEICHNUNG":"Osterrönfeld","STELLE_ART":"Bf Abzw","KUERZEL":"AON","GK_R_DGN":3546957.412,"GK_H_DGN":6017255.029}},{"type":"Feature","geometry":{"type":"Point","coordinates":[10.1319085,54.31488647]},"properties":{"STRECKE_NR":1023,"RICHTUNG":"0","KM_I":100000047,"KM_L":"0.0 + 47","BEZEICHNUNG":"Kiel Hbf","STELLE_ART":"Bf","KUERZEL":"AK","GK_R_DGN":3573738.548,"GK_H_DGN":6021114.633}},{"type":"Feature","geometry":{"type":"Point","coordinates":[10.17993938,54.28720888]},"properties":{"STRECKE_NR":1023,"RICHTUNG":"0","KM_I":100510086,"KM_L":"5.1 + 86","BEZEICHNUNG":"Kiel-Elmschenhagen","STELLE_ART":"Bf","KUERZEL":"AKE","GK_R_DGN":3576915.7,"GK_H_DGN":6018085.276}},{"type":"Feature","geometry":{"type":"Point","coordinates":[10.24350727,54.28107051]},"properties":{"STRECKE_NR":1023,"RICHTUNG":"0","KM_I":100950017,"KM_L":"9.5 + 17","BEZEICHNUNG":"Raisdorf","STELLE_ART":"Bf","KUERZEL":"ARS","GK_R_DGN":3581067.19,"GK_H_DGN":6017473.161}},{"type":"Feature","geometry":{"type":"Point","coordinates":[10.27566527,54.23415938]},"properties":{"STRECKE_NR":1023,"RICHTUNG":"0","KM_I":101530076,"KM_L":"15.3 + 76","BEZEICHNUNG":"Preetz","STELLE_ART":"Bf","KUERZEL":"APZ","GK_R_DGN":3583255.942,"GK_H_DGN":6012289.321}},{"type":"Feature","geometry":{"type":"Point","coordinates":[10.33983064,54.14859774]},"properties":{"STRECKE_NR":1023,"RICHTUNG":"0","KM_I":102660098,"KM_L":"26.6 + 98","BEZEICHNUNG":"Ascheberg (Holst)","STELLE_ART":"Bf","KUERZEL":"AAG","GK_R_DGN":3587620.249,"GK_H_DGN":6002843.949}},{"type":"Feature","geometry":{"type":"Point","coordinates":[10.42248758,54.15947367]},"properties":{"STRECKE_NR":1023,"RICHTUNG":"0","KM_I":103300056,"KM_L":"33.0 + 56","BEZEICHNUNG":"Plön","STELLE_ART":"Bf","KUERZEL":"APLN","GK_R_DGN":3592996.331,"GK_H_DGN":6004159.942}},{"type":"Feature","geometry":{"type":"Point","coordinates":[10.60969035,54.13560109]},"properties":{"STRECKE_NR":1023,"RICHTUNG":"0","KM_I":104770044,"KM_L":"47.7 + 44","BEZEICHNUNG":"Eutin","STELLE_ART":"Bf","KUERZEL":"AEU","GK_R_DGN":3605284.432,"GK_H_DGN":6001765.437}},{"type":"Feature","geometry":{"type":"Point","coordinates":[10.79477921,54.09565558]},"properties":{"STRECKE_NR":1023,"RICHTUNG":"0","KM_I":106200020,"KM_L":"62.0 + 20","BEZEICHNUNG":"Neustadt (Holst) Gbf","STELLE_ART":"Bf","KUERZEL":"ANN","GK_R_DGN":3617493.42,"GK_H_DGN":5997611.251}},{"type":"Feature","geometry":{"type":"Point","coordinates":[10.10816197,54.28528183]},"properties":{"STRECKE_NR":1031,"RICHTUNG":"0","KM_I":110100000,"KM_L":"101.0 + 0","BEZEICHNUNG":"Meimersdorf","STELLE_ART":"Bf Abzw","KUERZEL":"AMR","GK_R_DGN":3572244.992,"GK_H_DGN":6017794.999}},{"type":"Feature","geometry":{"type":"Point","coordinates":[10.13435623,54.29250297]},"properties":{"STRECKE_NR":1032,"RICHTUNG":"0","KM_I":110290076,"KM_L":"102.9 + 76","BEZEICHNUNG":"Meimersdorf Ost","STELLE_ART":"Bft Abzw","KUERZEL":"AMRO","GK_R_DGN":3573937.899,"GK_H_DGN":6018625.84}},{"type":"Feature","geometry":{"type":"Point","coordinates":[10.108218,54.2852035]},"properties":{"STRECKE_NR":1033,"RICHTUNG":"0","KM_I":110100000,"KM_L":"101.0 + 0","BEZEICHNUNG":"Meimersdorf","STELLE_ART":"Bf Abzw","KUERZEL":"AMR","GK_R_DGN":3572248.778,"GK_H_DGN":6017786.338}},{"type":"Feature","geometry":{"type":"Point","coordinates":[10.13435623,54.29250297]},"properties":{"STRECKE_NR":1033,"RICHTUNG":"0","KM_I":110290076,"KM_L":"102.9 + 76","BEZEICHNUNG":"Meimersdorf Ost","STELLE_ART":"Bft Abzw","KUERZEL":"AMRO","GK_R_DGN":3573937.899,"GK_H_DGN":6018625.84}},{"type":"Feature","geometry":{"type":"Point","coordinates":[9.97982545,54.07636748]},"properties":{"STRECKE_NR":1040,"RICHTUNG":"0","KM_I":107460088,"KM_L":"74.6 + 88","BEZEICHNUNG":"Neumünster","STELLE_ART":"Bf","KUERZEL":"AN","GK_R_DGN":3564209.84,"GK_H_DGN":5994418.622}},{"type":"Feature","geometry":{"type":"Point","coordinates":[9.85250407,54.16664245]},"properties":{"STRECKE_NR":1040,"RICHTUNG":"0","KM_I":108880066,"KM_L":"88.8 + 66","BEZEICHNUNG":"Nortorf","STELLE_ART":"Bf","KUERZEL":"ANF","GK_R_DGN":3555755.163,"GK_H_DGN":6004358.557}},{"type":"Feature","geometry":{"type":"Point","coordinates":[9.71982705,54.2833738]},"properties":{"STRECKE_NR":1040,"RICHTUNG":"0","KM_I":110500008,"KM_L":"105.0 + 8","BEZEICHNUNG":"Osterrönfeld","STELLE_ART":"Bf Abzw","KUERZEL":"AON","GK_R_DGN":3546957.412,"GK_H_DGN":6017255.029}},{"type":"Feature","geometry":{"type":"Point","coordinates":[9.67048638,54.30272527]},"properties":{"STRECKE_NR":1040,"RICHTUNG":"0","KM_I":111380069,"KM_L":"113.8 + 69","BEZEICHNUNG":"Rendsburg","STELLE_ART":"Bf","KUERZEL":"AR","GK_R_DGN":3543723.498,"GK_H_DGN":6019377.334}},{"type":"Feature","geometry":{"type":"Point","coordinates":[9.59037718,54.39274159]},"properties":{"STRECKE_NR":1040,"RICHTUNG":"0","KM_I":112540010,"KM_L":"125.4 + 10","BEZEICHNUNG":"Owschlag","STELLE_ART":"Bf","KUERZEL":"AOS","GK_R_DGN":3538424.698,"GK_H_DGN":6029350.353}},{"type":"Feature","geometry":{"type":"Point","coordinates":[9.53734559,54.49989083]},"properties":{"STRECKE_NR":1040,"RICHTUNG":"0","KM_I":113830089,"KM_L":"138.3 + 89","BEZEICHNUNG":"Schleswig","STELLE_ART":"Bf","KUERZEL":"ASW","GK_R_DGN":3534888.993,"GK_H_DGN":6041249.686}},{"type":"Feature","geometry":{"type":"Point","coordinates":[9.40364319,54.5596885]},"properties":{"STRECKE_NR":1040,"RICHTUNG":"0","KM_I":114940027,"KM_L":"149.4 + 27","BEZEICHNUNG":"Jübek","STELLE_ART":"Bf","KUERZEL":"AJ","GK_R_DGN":3526188.688,"GK_H_DGN":6047848.05}},{"type":"Feature","geometry":{"type":"Point","coordinates":[9.39855346,54.75824882]},"properties":{"STRECKE_NR":1040,"RICHTUNG":"0","KM_I":117290016,"KM_L":"172.9 + 16","BEZEICHNUNG":"Flensburg Weiche","STELLE_ART":"Bf","KUERZEL":"AFW","GK_R_DGN":3525734.001,"GK_H_DGN":6069949.051}},{"type":"Feature","geometry":{"type":"Point","coordinates":[9.43598426,54.7739873]},"properties":{"STRECKE_NR":1040,"RICHTUNG":"0","KM_I":117620030,"KM_L":"176.2 + 30","BEZEICHNUNG":"Flensburg","STELLE_ART":"Bf","KUERZEL":"AF","GK_R_DGN":3528132.808,"GK_H_DGN":6071715.352}},{"type":"Feature","geometry":{"type":"Point","coordinates":[9.9796452,54.07639695]},"properties":{"STRECKE_NR":1042,"RICHTUNG":"0","KM_I":100000026,"KM_L":"0.0 + 26","BEZEICHNUNG":"Neumünster","STELLE_ART":"Bf","KUERZEL":"AN","GK_R_DGN":3564197.997,"GK_H_DGN":5994421.738}},{"type":"Feature","geometry":{"type":"Point","coordinates":[9.65335043,54.08673988]},"properties":{"STRECKE_NR":1042,"RICHTUNG":"0","KM_I":102270031,"KM_L":"22.7 + 31","BEZEICHNUNG":"Hohenwestedt","STELLE_ART":"Bf","KUERZEL":"AHWT","GK_R_DGN":3542830.335,"GK_H_DGN":5995326.459}},{"type":"Feature","geometry":{"type":"Point","coordinates":[9.1010042,54.19424192]},"properties":{"STRECKE_NR":1042,"RICHTUNG":"0","KM_I":106260000,"KM_L":"62.6 + 0","BEZEICHNUNG":"Heide (Holst)","STELLE_ART":"Bf","KUERZEL":"AHI","GK_R_DGN":3506668.541,"GK_H_DGN":6007099.463}},{"type":"Feature","geometry":{"type":"Point","coordinates":[9.98029476,54.07629265]},"properties":{"STRECKE_NR":1043,"RICHTUNG":"0","KM_I":107460059,"KM_L":"74.6 + 59","BEZEICHNUNG":"Neumünster","STELLE_ART":"Bf","KUERZEL":"AN","GK_R_DGN":3564240.673,"GK_H_DGN":5994410.719}},{"type":"Feature","geometry":{"type":"Point","coordinates":[10.05740495,54.02195718]},"properties":{"STRECKE_NR":1043,"RICHTUNG":"0","KM_I":108320044,"KM_L":"83.2 + 44","BEZEICHNUNG":"Kleinkummerfeld","STELLE_ART":"Bf a.B.","KUERZEL":"AKD","GK_R_DGN":3569378.067,"GK_H_DGN":5988435.9}},{"type":"Feature","geometry":{"type":"Point","coordinates":[10.25309687,53.94393254]},"properties":{"STRECKE_NR":1043,"RICHTUNG":"0","KM_I":109930063,"KM_L":"99.3 + 63","BEZEICHNUNG":"Fahrenkrug","STELLE_ART":"Bft","KUERZEL":"AFK","GK_R_DGN":3582356.725,"GK_H_DGN":5979961.375}},{"type":"Feature","geometry":{"type":"Point","coordinates":[10.30778887,53.93399581]},"properties":{"STRECKE_NR":1043,"RICHTUNG":"0","KM_I":110310043,"KM_L":"103.1 + 43","BEZEICHNUNG":"Bad Segeberg","STELLE_ART":"Bf","KUERZEL":"ASB","GK_R_DGN":3585968.127,"GK_H_DGN":5978920.363}},{"type":"Feature","geometry":{"type":"Point","coordinates":[10.38244755,53.80533924]},"properties":{"STRECKE_NR":1043,"RICHTUNG":"0","KM_I":111950074,"KM_L":"119.5 + 74","BEZEICHNUNG":"Bad Oldesloe","STELLE_ART":"Bf","KUERZEL":"AO","GK_R_DGN":3591150.324,"GK_H_DGN":5964694.969}},{"type":"Feature","geometry":{"type":"Point","coordinates":[10.66942723,53.86789467]},"properties":{"STRECKE_NR":1100,"RICHTUNG":"0","KM_I":100000000,"KM_L":"0.0 + 0","BEZEICHNUNG":"Lübeck Hbf","STELLE_ART":"Bf","KUERZEL":"AL","GK_R_DGN":3609890.979,"GK_H_DGN":5972062.995}},{"type":"Feature","geometry":{"type":"Point","coordinates":[10.74328048,53.94982463]},"properties":{"STRECKE_NR":1100,"RICHTUNG":"0","KM_I":101050088,"KM_L":"10.5 + 88","BEZEICHNUNG":"Ratekau","STELLE_ART":"Bf","KUERZEL":"ARAT","GK_R_DGN":3614524.352,"GK_H_DGN":5981297.61}},{"type":"Feature","geometry":{"type":"Point","coordinates":[10.7621749,53.9943607]},"properties":{"STRECKE_NR":1100,"RICHTUNG":"0","KM_I":101570066,"KM_L":"15.7 + 66","BEZEICHNUNG":"Timmendorfer Strand","STELLE_ART":"Bf","KUERZEL":"ATIM","GK_R_DGN":3615641.352,"GK_H_DGN":5986284.612}},{"type":"Feature","geometry":{"type":"Point","coordinates":[10.74563156,54.01877078]},"properties":{"STRECKE_NR":1100,"RICHTUNG":"0","KM_I":101860098,"KM_L":"18.6 + 98","BEZEICHNUNG":"Scharbeutz","STELLE_ART":"Bf","KUERZEL":"ASAZ","GK_R_DGN":3614489.54,"GK_H_DGN":5988974.302}},{"type":"Feature","geometry":{"type":"Point","coordinates":[10.74240394,54.05415554]},"properties":{"STRECKE_NR":1100,"RICHTUNG":"0","KM_I":102300044,"KM_L":"23.0 + 44","BEZEICHNUNG":"Haffkrug","STELLE_ART":"Bf","KUERZEL":"AHAF","GK_R_DGN":3614181.052,"GK_H_DGN":5992907.029}},{"type":"Feature","geometry":{"type":"Point","coordinates":[10.7686444,54.06849141]},"properties":{"STRECKE_NR":1100,"RICHTUNG":"0","KM_I":102540000,"KM_L":"25.4 + 0","BEZEICHNUNG":"Sierksdorf","STELLE_ART":"Bf","KUERZEL":"ASID","GK_R_DGN":3615859.409,"GK_H_DGN":5994545.089}},{"type":"Feature","geometry":{"type":"Point","coordinates":[10.79469425,54.09564927]},"properties":{"STRECKE_NR":1100,"RICHTUNG":"0","KM_I":102900067,"KM_L":"29.0 + 67","BEZEICHNUNG":"Neustadt (Holst) Gbf","STELLE_ART":"Bf","KUERZEL":"ANN","GK_R_DGN":3617487.88,"GK_H_DGN":5997610.407}},{"type":"Feature","geometry":{"type":"Point","coordinates":[10.82331948,54.13901952]},"properties":{"STRECKE_NR":1100,"RICHTUNG":"0","KM_I":103440067,"KM_L":"34.4 + 67","BEZEICHNUNG":"Hasselburg","STELLE_ART":"Bf","KUERZEL":"AHSG","GK_R_DGN":3619235.902,"GK_H_DGN":6002484.942}},{"type":"Feature","geometry":{"type":"Point","coordinates":[10.86369084,54.16402028]},"properties":{"STRECKE_NR":1100,"RICHTUNG":"0","KM_I":103830065,"KM_L":"38.3 + 65","BEZEICHNUNG":"Groß Schlamin","STELLE_ART":"Bf","KUERZEL":"AGR","GK_R_DGN":3621800.629,"GK_H_DGN":6005336.062}},{"type":"Feature","geometry":{"type":"Point","coordinates":[10.87559852,54.19260408]},"properties":{"STRECKE_NR":1100,"RICHTUNG":"0","KM_I":104160084,"KM_L":"41.6 + 84","BEZEICHNUNG":"Beschendorf","STELLE_ART":"Bf","KUERZEL":"ABDF","GK_R_DGN":3622493.809,"GK_H_DGN":6008537.703}},{"type":"Feature","geometry":{"type":"Point","coordinates":[10.89058899,54.2201289]},"properties":{"STRECKE_NR":1100,"RICHTUNG":"0","KM_I":104490063,"KM_L":"44.9 + 63","BEZEICHNUNG":"Lensahn","STELLE_ART":"Bf","KUERZEL":"ALS","GK_R_DGN":3623390.088,"GK_H_DGN":6011627.001}},{"type":"Feature","geometry":{"type":"Point","coordinates":[10.88712641,54.23895865]},"properties":{"STRECKE_NR":1100,"RICHTUNG":"0","KM_I":104700096,"KM_L":"47.0 + 96","BEZEICHNUNG":"Grüner Hirsch","STELLE_ART":"Bf","KUERZEL":"AGHI","GK_R_DGN":3623108.244,"GK_H_DGN":6013716.513}},{"type":"Feature","geometry":{"type":"Point","coordinates":[10.8826418,54.28396039]},"properties":{"STRECKE_NR":1100,"RICHTUNG":"0","KM_I":105220072,"KM_L":"52.2 + 72","BEZEICHNUNG":"Oldenburg (Holst)","STELLE_ART":"Bf","KUERZEL":"AOL","GK_R_DGN":3622682.276,"GK_H_DGN":6018716.957}},{"type":"Feature","geometry":{"type":"Point","coordinates":[10.94171537,54.28764008]},"properties":{"STRECKE_NR":1100,"RICHTUNG":"0","KM_I":105660003,"KM_L":"56.6 + 3","BEZEICHNUNG":"Göhl","STELLE_ART":"Bf","KUERZEL":"AGOE","GK_R_DGN":3626517.683,"GK_H_DGN":6019230.742}},{"type":"Feature","geometry":{"type":"Point","coordinates":[11.03025783,54.32570681]},"properties":{"STRECKE_NR":1100,"RICHTUNG":"0","KM_I":106430049,"KM_L":"64.3 + 49","BEZEICHNUNG":"Neukirchen (Holst)","STELLE_ART":"Bf","KUERZEL":"ANEK","GK_R_DGN":3632160.718,"GK_H_DGN":6023629.424}},{"type":"Feature","geometry":{"type":"Point","coordinates":[11.08114462,54.36647154]},"properties":{"STRECKE_NR":1100,"RICHTUNG":"0","KM_I":107040090,"KM_L":"70.4 + 90","BEZEICHNUNG":"Großenbrode","STELLE_ART":"Bf","KUERZEL":"AGRO","GK_R_DGN":3635336.9,"GK_H_DGN":6028262.541}},{"type":"Feature","geometry":{"type":"Point","coordinates":[11.13145199,54.42427441]},"properties":{"STRECKE_NR":1100,"RICHTUNG":"0","KM_I":107780024,"KM_L":"77.8 + 24","BEZEICHNUNG":"Strukkamp","STELLE_ART":"Bf","KUERZEL":"ASTK","GK_R_DGN":3638411.415,"GK_H_DGN":6034792.97}},{"type":"Feature","geometry":{"type":"Point","coordinates":[11.18080135,54.45033292]},"properties":{"STRECKE_NR":1100,"RICHTUNG":"0","KM_I":108210054,"KM_L":"82.1 + 54","BEZEICHNUNG":"Burg (Fehmarn) West","STELLE_ART":"Bf","KUERZEL":"ABUW","GK_R_DGN":3641523.955,"GK_H_DGN":6037790.994}},{"type":"Feature","geometry":{"type":"Point","coordinates":[11.22745176,54.50087278]},"properties":{"STRECKE_NR":1100,"RICHTUNG":"0","KM_I":108850088,"KM_L":"88.5 + 88","BEZEICHNUNG":"Puttgarden","STELLE_ART":"Bf","KUERZEL":"APU","GK_R_DGN":3644371.187,"GK_H_DGN":6043510.105}},{"type":"Feature","geometry":{"type":"Point","coordinates":[10.67100035,54.04654706]},"properties":{"STRECKE_NR":1110,"RICHTUNG":"0","KM_I":101150042,"KM_L":"11.5 + 42","BEZEICHNUNG":"Pönitz (Holst)","STELLE_ART":"Bf","KUERZEL":"APN","GK_R_DGN":3609525.454,"GK_H_DGN":5991947.487}},{"type":"Feature","geometry":{"type":"Point","coordinates":[10.70305438,53.98096098]},"properties":{"STRECKE_NR":1110,"RICHTUNG":"0","KM_I":101920051,"KM_L":"19.2 + 51","BEZEICHNUNG":"Pansdorf","STELLE_ART":"Bf","KUERZEL":"APF","GK_R_DGN":3611800.389,"GK_H_DGN":5984698.502}},{"type":"Feature","geometry":{"type":"Point","coordinates":[10.73766326,53.91137891]},"properties":{"STRECKE_NR":1113,"RICHTUNG":"0","KM_I":100820004,"KM_L":"8.2 + 4","BEZEICHNUNG":"Lübeck-Dänischburg","STELLE_ART":"Bf","KUERZEL":"ALD","GK_R_DGN":3614260.529,"GK_H_DGN":5977010.025}},{"type":"Feature","geometry":{"type":"Point","coordinates":[10.73765021,53.911374]},"properties":{"STRECKE_NR":1115,"RICHTUNG":"0","KM_I":99999926,"KM_L":"-0.0 + -73","BEZEICHNUNG":"Lübeck-Dänischburg","STELLE_ART":"Bf","KUERZEL":"ALD","GK_R_DGN":3614259.685,"GK_H_DGN":5977009.458}},{"type":"Feature","geometry":{"type":"Point","coordinates":[10.66988858,53.86747631]},"properties":{"STRECKE_NR":1120,"RICHTUNG":"0","KM_I":100000000,"KM_L":"0.0 + 0","BEZEICHNUNG":"Lübeck Hbf","STELLE_ART":"Bf","KUERZEL":"AL","GK_R_DGN":3609922.42,"GK_H_DGN":5972017.151}},{"type":"Feature","geometry":{"type":"Point","coordinates":[10.65555431,53.85013677]},"properties":{"STRECKE_NR":1120,"RICHTUNG":"0","KM_I":100240088,"KM_L":"2.4 + 88","BEZEICHNUNG":"Lübeck Hgbf Abzw","STELLE_ART":"Bft Abzw","KUERZEL":"ALRA","GK_R_DGN":3609024.624,"GK_H_DGN":5970065.37}},{"type":"Feature","geometry":{"type":"Point","coordinates":[10.61256729,53.83511158]},"properties":{"STRECKE_NR":1120,"RICHTUNG":"0","KM_I":100750011,"KM_L":"7.5 + 11","BEZEICHNUNG":"Lübeck-Niendorf","STELLE_ART":"Bf a.B.","KUERZEL":"ALN","GK_R_DGN":3606233.975,"GK_H_DGN":5968328.085}},{"type":"Feature","geometry":{"type":"Point","coordinates":[10.49429561,53.83050242]},"properties":{"STRECKE_NR":1120,"RICHTUNG":"0","KM_I":101580033,"KM_L":"15.8 + 33","BEZEICHNUNG":"Reinfeld (Holst)","STELLE_ART":"Bf","KUERZEL":"ARD","GK_R_DGN":3598459.315,"GK_H_DGN":5967644.674}},{"type":"Feature","geometry":{"type":"Point","coordinates":[10.38253739,53.80529988]},"properties":{"STRECKE_NR":1120,"RICHTUNG":"0","KM_I":102380087,"KM_L":"23.8 + 87","BEZEICHNUNG":"Bad Oldesloe","STELLE_ART":"Bf","KUERZEL":"AO","GK_R_DGN":3591156.327,"GK_H_DGN":5964690.704}},{"type":"Feature","geometry":{"type":"Point","coordinates":[10.26900058,53.72818684]},"properties":{"STRECKE_NR":1120,"RICHTUNG":"0","KM_I":103540005,"KM_L":"35.4 + 5","BEZEICHNUNG":"Bargteheide","STELLE_ART":"Bf","KUERZEL":"ABAE","GK_R_DGN":3583830.359,"GK_H_DGN":5955968.958}},{"type":"Feature","geometry":{"type":"Point","coordinates":[10.23618111,53.66931954]},"properties":{"STRECKE_NR":1120,"RICHTUNG":"0","KM_I":104240037,"KM_L":"42.4 + 37","BEZEICHNUNG":"Ahrensburg","STELLE_ART":"Bf","KUERZEL":"AAHR","GK_R_DGN":3581778.304,"GK_H_DGN":5949379.371}},{"type":"Feature","geometry":{"type":"Point","coordinates":[10.15421471,53.60482284]},"properties":{"STRECKE_NR":1120,"RICHTUNG":"0","KM_I":105160065,"KM_L":"51.6 + 65","BEZEICHNUNG":"Hamburg-Rahlstedt","STELLE_ART":"Bf","KUERZEL":"ARAL","GK_R_DGN":3576477.626,"GK_H_DGN":5942110.422}},{"type":"Feature","geometry":{"type":"Point","coordinates":[10.07708953,53.56997307]},"properties":{"STRECKE_NR":1120,"RICHTUNG":"0","KM_I":105820000,"KM_L":"58.2 + 0","BEZEICHNUNG":"Hamburg-Wandsbek","STELLE_ART":"Bf","KUERZEL":"AWN","GK_R_DGN":3571431.302,"GK_H_DGN":5938151.934}},{"type":"Feature","geometry":{"type":"Point","coordinates":[10.00650182,53.5535773]},"properties":{"STRECKE_NR":1120,"RICHTUNG":"0","KM_I":106380096,"KM_L":"63.8 + 96","BEZEICHNUNG":"Hamburg Hbf","STELLE_ART":"Bf","KUERZEL":"AH","GK_R_DGN":3566780.928,"GK_H_DGN":5936258.81}},{"type":"Feature","geometry":{"type":"Point","coordinates":[10.65555431,53.85013677]},"properties":{"STRECKE_NR":1121,"RICHTUNG":"0","KM_I":100240082,"KM_L":"2.4 + 82","BEZEICHNUNG":"Lübeck Hgbf Abzw","STELLE_ART":"Bft Abzw","KUERZEL":"ALRA","GK_R_DGN":3609024.624,"GK_H_DGN":5970065.37}},{"type":"Feature","geometry":{"type":"Point","coordinates":[10.72756789,53.7540526]},"properties":{"STRECKE_NR":1121,"RICHTUNG":"0","KM_I":101350073,"KM_L":"13.5 + 73","BEZEICHNUNG":"Pogeez","STELLE_ART":"Bf","KUERZEL":"APOF","GK_R_DGN":3614023.521,"GK_H_DGN":5959485.603}},{"type":"Feature","geometry":{"type":"Point","coordinates":[10.74055891,53.6983243]},"properties":{"STRECKE_NR":1121,"RICHTUNG":"0","KM_I":101990050,"KM_L":"19.9 + 50","BEZEICHNUNG":"Ratzeburg","STELLE_ART":"Bf","KUERZEL":"ARF","GK_R_DGN":3615032.244,"GK_H_DGN":5953304.86}},{"type":"Feature","geometry":{"type":"Point","coordinates":[10.68300464,53.62447604]},"properties":{"STRECKE_NR":1121,"RICHTUNG":"0","KM_I":102920030,"KM_L":"29.2 + 30","BEZEICHNUNG":"Mölln (Lauenburg)","STELLE_ART":"Bf","KUERZEL":"AMLN","GK_R_DGN":3611425.884,"GK_H_DGN":5944995.199}},{"type":"Feature","geometry":{"type":"Point","coordinates":[10.65666946,53.53790212]},"properties":{"STRECKE_NR":1121,"RICHTUNG":"0","KM_I":103930048,"KM_L":"39.3 + 48","BEZEICHNUNG":"Güster","STELLE_ART":"Bf","KUERZEL":"AGUE","GK_R_DGN":3609907.887,"GK_H_DGN":5935320.11}},{"type":"Feature","geometry":{"type":"Point","coordinates":[10.75978046,53.83771803]},"properties":{"STRECKE_NR":1122,"RICHTUNG":"0","KM_I":101020000,"KM_L":"10.2 + 0","BEZEICHNUNG":"Herrnburg","STELLE_ART":"Bf","KUERZEL":"WHB","GK_R_DGN":3615917.18,"GK_H_DGN":5968848.45}},{"type":"Feature","geometry":{"type":"Point","coordinates":[10.92840386,53.8536738]},"properties":{"STRECKE_NR":1122,"RICHTUNG":"0","KM_I":101940007,"KM_L":"19.4 + 7","BEZEICHNUNG":"Schönberg (Meckl)","STELLE_ART":"Bf","KUERZEL":"WSBG","GK_R_DGN":3626967.673,"GK_H_DGN":5970912.553}},{"type":"Feature","geometry":{"type":"Point","coordinates":[11.01279261,53.84812193]},"properties":{"STRECKE_NR":1122,"RICHTUNG":"0","KM_I":102530041,"KM_L":"25.3 + 41","BEZEICHNUNG":"Menzendorf","STELLE_ART":"Bf","KUERZEL":"WMEF","GK_R_DGN":3632537.424,"GK_H_DGN":5970449.003}},{"type":"Feature","geometry":{"type":"Point","coordinates":[11.06859907,53.85131391]},"properties":{"STRECKE_NR":1122,"RICHTUNG":"0","KM_I":102900040,"KM_L":"29.0 + 40","BEZEICHNUNG":"Grieben (Meckl)","STELLE_ART":"Bf","KUERZEL":"WGBN","GK_R_DGN":3636199.196,"GK_H_DGN":5970909.86}},{"type":"Feature","geometry":{"type":"Point","coordinates":[11.18437182,53.85737104]},"properties":{"STRECKE_NR":1122,"RICHTUNG":"0","KM_I":103670000,"KM_L":"36.7 + 0","BEZEICHNUNG":"Grevesmühlen","STELLE_ART":"Bf","KUERZEL":"WGV","GK_R_DGN":3643795.714,"GK_H_DGN":5971812.274}},{"type":"Feature","geometry":{"type":"Point","coordinates":[11.36278363,53.80461773]},"properties":{"STRECKE_NR":1122,"RICHTUNG":"0","KM_I":105050070,"KM_L":"50.5 + 70","BEZEICHNUNG":"Bobitz","STELLE_ART":"Bf","KUERZEL":"WBO","GK_R_DGN":3655727.819,"GK_H_DGN":5966318.581}},{"type":"Feature","geometry":{"type":"Point","coordinates":[11.46663175,53.76674595]},"properties":{"STRECKE_NR":1122,"RICHTUNG":"0","KM_I":105930020,"KM_L":"59.3 + 20","BEZEICHNUNG":"Bad Kleinen","STELLE_ART":"Bf","KUERZEL":"WK","GK_R_DGN":3662714.175,"GK_H_DGN":5962337.39}},{"type":"Feature","geometry":{"type":"Point","coordinates":[11.71509879,53.77224988]},"properties":{"STRECKE_NR":1122,"RICHTUNG":"0","KM_I":107680000,"KM_L":"76.8 + 0","BEZEICHNUNG":"Blankenberg (Meckl)","STELLE_ART":"Bf","KUERZEL":"WBL","GK_R_DGN":3679069.979,"GK_H_DGN":5963547.617}},{"type":"Feature","geometry":{"type":"Point","coordinates":[11.87185441,53.78901379]},"properties":{"STRECKE_NR":1122,"RICHTUNG":"0","KM_I":108960060,"KM_L":"89.6 + 60","BEZEICHNUNG":"Warnow (Meckl)","STELLE_ART":"Bf","KUERZEL":"WWRN","GK_R_DGN":3689326.132,"GK_H_DGN":5965819.411}},{"type":"Feature","geometry":{"type":"Point","coordinates":[11.99855709,53.83738062]},"properties":{"STRECKE_NR":1122,"RICHTUNG":"0","KM_I":109980070,"KM_L":"99.8 + 70","BEZEICHNUNG":"Bützow","STELLE_ART":"Bf","KUERZEL":"WB","GK_R_DGN":3697445.856,"GK_H_DGN":5971545.786}},{"type":"Feature","geometry":{"type":"Point","coordinates":[12.08805244,53.83093689]},"properties":{"STRECKE_NR":1122,"RICHTUNG":"0","KM_I":110660081,"KM_L":"106.6 + 81","BEZEICHNUNG":"Schwiesower Forst","STELLE_ART":"Bf a.B.","KUERZEL":"WSWF","GK_R_DGN":3703366.1,"GK_H_DGN":5971081.687}},{"type":"Feature","geometry":{"type":"Point","coordinates":[12.16388097,53.80533955]},"properties":{"STRECKE_NR":1122,"RICHTUNG":"0","KM_I":111250000,"KM_L":"112.5 + 0","BEZEICHNUNG":"Güstrow Gbf","STELLE_ART":"Bft","KUERZEL":"WG  G","GK_R_DGN":3708483.514,"GK_H_DGN":5968454.012}},{"type":"Feature","geometry":{"type":"Point","coordinates":[12.17244564,53.80073151]},"properties":{"STRECKE_NR":1122,"RICHTUNG":"0","KM_I":111320063,"KM_L":"113.2 + 63","BEZEICHNUNG":"Güstrow","STELLE_ART":"Bf","KUERZEL":"WG","GK_R_DGN":3709070.432,"GK_H_DGN":5967966.565}},{"type":"Feature","geometry":{"type":"Point","coordinates":[12.222939,53.79603366]},"properties":{"STRECKE_NR":1122,"RICHTUNG":"0","KM_I":111670049,"KM_L":"116.7 + 49","BEZEICHNUNG":"Priemerburg - NUP Güstrow","STELLE_ART":"Bf","KUERZEL":"WPI","GK_R_DGN":3712419.529,"GK_H_DGN":5967593.865}},{"type":"Feature","geometry":{"type":"Point","coordinates":[12.24417684,53.78908968]},"properties":{"STRECKE_NR":1122,"RICHTUNG":"0","KM_I":111840000,"KM_L":"118.4 + 0","BEZEICHNUNG":"Priemerwald Süd (ehemals)","STELLE_ART":"Bf","KUERZEL":"WPWS","GK_R_DGN":3713853.666,"GK_H_DGN":5966885.141}},{"type":"Feature","geometry":{"type":"Point","coordinates":[12.38631546,53.75501634]},"properties":{"STRECKE_NR":1122,"RICHTUNG":"0","KM_I":112900030,"KM_L":"129.0 + 30","BEZEICHNUNG":"Lalendorf","STELLE_ART":"Bf","KUERZEL":"WLD","GK_R_DGN":3723397.702,"GK_H_DGN":5963532.394}},{"type":"Feature","geometry":{"type":"Point","coordinates":[12.57815313,53.76840606]},"properties":{"STRECKE_NR":1122,"RICHTUNG":"0","KM_I":114220089,"KM_L":"142.2 + 89","BEZEICHNUNG":"Teterow","STELLE_ART":"Bf","KUERZEL":"WTE","GK_R_DGN":3735969.123,"GK_H_DGN":5965642.456}},{"type":"Feature","geometry":{"type":"Point","coordinates":[12.66454049,53.77214285]},"properties":{"STRECKE_NR":1122,"RICHTUNG":"0","KM_I":114870079,"KM_L":"148.7 + 79","BEZEICHNUNG":"Hohen Mistorf","STELLE_ART":"Bf a.B.","KUERZEL":"WHMT","GK_R_DGN":3741640.501,"GK_H_DGN":5966348.737}},{"type":"Feature","geometry":{"type":"Point","coordinates":[12.76108327,53.74339475]},"properties":{"STRECKE_NR":1122,"RICHTUNG":"0","KM_I":115630015,"KM_L":"156.3 + 15","BEZEICHNUNG":"Malchin","STELLE_ART":"Bf","KUERZEL":"WMA","GK_R_DGN":3748171.359,"GK_H_DGN":5963484.154}},{"type":"Feature","geometry":{"type":"Point","coordinates":[12.83864157,53.71967151]},"properties":{"STRECKE_NR":1122,"RICHTUNG":"0","KM_I":116230000,"KM_L":"162.3 + 0","BEZEICHNUNG":"Scharpzow","STELLE_ART":"Bf a.B.","KUERZEL":"WSRP","GK_R_DGN":3753427.863,"GK_H_DGN":5961119.439}},{"type":"Feature","geometry":{"type":"Point","coordinates":[12.91397161,53.70691558]},"properties":{"STRECKE_NR":1122,"RICHTUNG":"0","KM_I":116750007,"KM_L":"167.5 + 7","BEZEICHNUNG":"Reuterstadt Stavenhagen","STELLE_ART":"Bf","KUERZEL":"WRST","GK_R_DGN":3758475.618,"GK_H_DGN":5959972.159}},{"type":"Feature","geometry":{"type":"Point","coordinates":[12.99954071,53.68328843]},"properties":{"STRECKE_NR":1122,"RICHTUNG":"0","KM_I":117370040,"KM_L":"173.7 + 40","BEZEICHNUNG":"Grischow (Meckl)","STELLE_ART":"Bf","KUERZEL":"WGRO","GK_R_DGN":3764270.216,"GK_H_DGN":5957659.206}},{"type":"Feature","geometry":{"type":"Point","coordinates":[13.06042745,53.62316794]},"properties":{"STRECKE_NR":1122,"RICHTUNG":"0","KM_I":118230081,"KM_L":"182.3 + 81","BEZEICHNUNG":"Kleeth","STELLE_ART":"Bf","KUERZEL":"WKLE","GK_R_DGN":3768672.461,"GK_H_DGN":5951201.135}},{"type":"Feature","geometry":{"type":"Point","coordinates":[13.13628183,53.56947682]},"properties":{"STRECKE_NR":1122,"RICHTUNG":"0","KM_I":119100030,"KM_L":"191.0 + 30","BEZEICHNUNG":"Blankenhof","STELLE_ART":"Bf","KUERZEL":"WBLH","GK_R_DGN":3774035.198,"GK_H_DGN":5945519.423}},{"type":"Feature","geometry":{"type":"Point","coordinates":[13.26180611,53.56201301]},"properties":{"STRECKE_NR":1122,"RICHTUNG":"0","KM_I":120090038,"KM_L":"200.9 + 38","BEZEICHNUNG":"Neubrandenburg","STELLE_ART":"Bf","KUERZEL":"WN","GK_R_DGN":3782394.371,"GK_H_DGN":5945180.265}},{"type":"Feature","geometry":{"type":"Point","coordinates":[13.27197724,53.56081679]},"properties":{"STRECKE_NR":1122,"RICHTUNG":"0","KM_I":120160025,"KM_L":"201.6 + 25","BEZEICHNUNG":"Neubrandenburg Gbf","STELLE_ART":"Bft","KUERZEL":"WN  G","GK_R_DGN":3783075.771,"GK_H_DGN":5945087.66}},{"type":"Feature","geometry":{"type":"Point","coordinates":[13.3662641,53.56388231]},"properties":{"STRECKE_NR":1122,"RICHTUNG":"0","KM_I":120800045,"KM_L":"208.0 + 45","BEZEICHNUNG":"Sponholz","STELLE_ART":"Bf","KUERZEL":"WSP","GK_R_DGN":3789297.388,"GK_H_DGN":5945807.854}},{"type":"Feature","geometry":{"type":"Point","coordinates":[13.57315277,53.51804111]},"properties":{"STRECKE_NR":1122,"RICHTUNG":"0","KM_I":122290071,"KM_L":"222.9 + 71","BEZEICHNUNG":"Oertzenhof","STELLE_ART":"Bf","KUERZEL":"WOE","GK_R_DGN":3803321.201,"GK_H_DGN":5941572.053}},{"type":"Feature","geometry":{"type":"Point","coordinates":[13.63549264,53.50687185]},"properties":{"STRECKE_NR":1122,"RICHTUNG":"0","KM_I":122720090,"KM_L":"227.2 + 90","BEZEICHNUNG":"Kreckow","STELLE_ART":"Bf a.B.","KUERZEL":"WKRE","GK_R_DGN":3807533.272,"GK_H_DGN":5940597.67}},{"type":"Feature","geometry":{"type":"Point","coordinates":[13.68453102,53.51790389]},"properties":{"STRECKE_NR":1122,"RICHTUNG":"0","KM_I":123090070,"KM_L":"230.9 + 70","BEZEICHNUNG":"Lauenhagen","STELLE_ART":"Bf a.B.","KUERZEL":"WLAH","GK_R_DGN":3810702.898,"GK_H_DGN":5942037.286}},{"type":"Feature","geometry":{"type":"Point","coordinates":[10.65504652,53.85559344]},"properties":{"STRECKE_NR":1130,"RICHTUNG":"0","KM_I":100180000,"KM_L":"1.8 + 0","BEZEICHNUNG":"Lübeck Hgbf","STELLE_ART":"Bf","KUERZEL":"ALR","GK_R_DGN":3608977.041,"GK_H_DGN":5970671.85}},{"type":"Feature","geometry":{"type":"Point","coordinates":[10.79529645,53.88581594]},"properties":{"STRECKE_NR":1131,"RICHTUNG":"0","KM_I":101400067,"KM_L":"14.0 + 67","BEZEICHNUNG":"Lübeck-Schlutup","STELLE_ART":"Bf","KUERZEL":"ALSC","GK_R_DGN":3618119.368,"GK_H_DGN":5974259.608}},{"type":"Feature","geometry":{"type":"Point","coordinates":[10.41989698,53.24975585]},"properties":{"STRECKE_NR":1150,"RICHTUNG":"0","KM_I":113150071,"KM_L":"131.5 + 71","BEZEICHNUNG":"Lüneburg","STELLE_ART":"Bf","KUERZEL":"ALBG","GK_R_DGN":3594849.705,"GK_H_DGN":5902915.249}},{"type":"Feature","geometry":{"type":"Point","coordinates":[10.45432227,53.28245086]},"properties":{"STRECKE_NR":1150,"RICHTUNG":"0","KM_I":113590026,"KM_L":"135.9 + 26","BEZEICHNUNG":"Adendorf","STELLE_ART":"Bf","KUERZEL":"AADF","GK_R_DGN":3597073.318,"GK_H_DGN":5906599.754}},{"type":"Feature","geometry":{"type":"Point","coordinates":[10.56733093,53.36938795]},"properties":{"STRECKE_NR":1150,"RICHTUNG":"0","KM_I":114850040,"KM_L":"148.5 + 40","BEZEICHNUNG":"Lauenburg (Elbe)","STELLE_ART":"Bf","KUERZEL":"ALAU","GK_R_DGN":3604397.701,"GK_H_DGN":5916433.449}},{"type":"Feature","geometry":{"type":"Point","coordinates":[10.60995936,53.42762954]},"properties":{"STRECKE_NR":1150,"RICHTUNG":"0","KM_I":115580098,"KM_L":"155.8 + 98","BEZEICHNUNG":"Dalldorf","STELLE_ART":"Bf","KUERZEL":"ADA","GK_R_DGN":3607088.598,"GK_H_DGN":5922977.749}},{"type":"Feature","geometry":{"type":"Point","coordinates":[10.62263059,53.47518977]},"properties":{"STRECKE_NR":1150,"RICHTUNG":"0","KM_I":116130038,"KM_L":"161.3 + 38","BEZEICHNUNG":"Büchen","STELLE_ART":"Bf","KUERZEL":"ABCH","GK_R_DGN":3607810.332,"GK_H_DGN":5928289.395}},{"type":"Feature","geometry":{"type":"Point","coordinates":[11.1182565,53.10503675]},"properties":{"STRECKE_NR":1151,"RICHTUNG":"0","KM_I":117560020,"KM_L":"175.6 + 20","BEZEICHNUNG":"Dannenberg Ost","STELLE_ART":"Bf","KUERZEL":"ADB","GK_R_DGN":3641934.768,"GK_H_DGN":5887966.169}},{"type":"Feature","geometry":{"type":"Point","coordinates":[10.70872333,53.16934613]},"properties":{"STRECKE_NR":1151,"RICHTUNG":"0","KM_I":120590064,"KM_L":"205.9 + 64","BEZEICHNUNG":"Dahlenburg","STELLE_ART":"Bf","KUERZEL":"ADL","GK_R_DGN":3614340.242,"GK_H_DGN":5894389.418}},{"type":"Feature","geometry":{"type":"Point","coordinates":[10.20702873,53.35398229]},"properties":{"STRECKE_NR":1153,"RICHTUNG":"0","KM_I":115050055,"KM_L":"150.5 + 55","BEZEICHNUNG":"Winsen (Luhe)","STELLE_ART":"Bf","KUERZEL":"AWI","GK_R_DGN":3580446.114,"GK_H_DGN":5914252.999}},{"type":"Feature","geometry":{"type":"Point","coordinates":[8.83487386,54.7895483]},"properties":{"STRECKE_NR":1201,"RICHTUNG":"0","KM_I":116200004,"KM_L":"162.0 + 4","BEZEICHNUNG":"Niebüll","STELLE_ART":"Bf","KUERZEL":"ANB","GK_R_DGN":3489453.753,"GK_H_DGN":6073372.887}},{"type":"Feature","geometry":{"type":"Point","coordinates":[8.93747416,54.31407293]},"properties":{"STRECKE_NR":1204,"RICHTUNG":"0","KM_I":102110056,"KM_L":"21.1 + 56","BEZEICHNUNG":"Tönning","STELLE_ART":"Bf","KUERZEL":"ATG","GK_R_DGN":3496006.793,"GK_H_DGN":6020434.834}},{"type":"Feature","geometry":{"type":"Point","coordinates":[8.86704698,54.13384728]},"properties":{"STRECKE_NR":1206,"RICHTUNG":"0","KM_I":102380041,"KM_L":"23.8 + 41","BEZEICHNUNG":"Büsum","STELLE_ART":"Bf","KUERZEL":"ABSM","GK_R_DGN":3491385.571,"GK_H_DGN":6000380.549}},{"type":"Feature","geometry":{"type":"Point","coordinates":[9.65876978,53.75520877]},"properties":{"STRECKE_NR":1210,"RICHTUNG":"0","KM_I":103060098,"KM_L":"30.6 + 98","BEZEICHNUNG":"Elmshorn","STELLE_ART":"Bf","KUERZEL":"AEL","GK_R_DGN":3543527.876,"GK_H_DGN":5958430.116}},{"type":"Feature","geometry":{"type":"Point","coordinates":[9.42847031,53.78844865]},"properties":{"STRECKE_NR":1210,"RICHTUNG":"0","KM_I":104740002,"KM_L":"47.4 + 2","BEZEICHNUNG":"Glückstadt","STELLE_ART":"Bf","KUERZEL":"AGST","GK_R_DGN":3528315.323,"GK_H_DGN":5962013.445}},{"type":"Feature","geometry":{"type":"Point","coordinates":[9.51015687,53.92396475]},"properties":{"STRECKE_NR":1210,"RICHTUNG":"0","KM_I":106490021,"KM_L":"64.9 + 21","BEZEICHNUNG":"Itzehoe","STELLE_ART":"Bf","KUERZEL":"AIZ","GK_R_DGN":3533590.564,"GK_H_DGN":5977132.019}},{"type":"Feature","geometry":{"type":"Point","coordinates":[9.38301407,53.9262949]},"properties":{"STRECKE_NR":1210,"RICHTUNG":"0","KM_I":107420060,"KM_L":"74.2 + 60","BEZEICHNUNG":"Wilster","STELLE_ART":"Bf","KUERZEL":"AWIR","GK_R_DGN":3525236.615,"GK_H_DGN":5977338.749}},{"type":"Feature","geometry":{"type":"Point","coordinates":[9.11762651,53.99003479]},"properties":{"STRECKE_NR":1210,"RICHTUNG":"0","KM_I":110110024,"KM_L":"101.1 + 24","BEZEICHNUNG":"St Michaelisdonn","STELLE_ART":"Bf","KUERZEL":"ASD","GK_R_DGN":3507791.27,"GK_H_DGN":5984371.659}},{"type":"Feature","geometry":{"type":"Point","coordinates":[9.08812089,54.15174958]},"properties":{"STRECKE_NR":1210,"RICHTUNG":"0","KM_I":111960006,"KM_L":"119.6 + 6","BEZEICHNUNG":"Hemmingstedt","STELLE_ART":"Bf","KUERZEL":"AHE","GK_R_DGN":3505833.549,"GK_H_DGN":6002368.619}},{"type":"Feature","geometry":{"type":"Point","coordinates":[9.10051503,54.19423616]},"properties":{"STRECKE_NR":1210,"RICHTUNG":"0","KM_I":112440075,"KM_L":"124.4 + 75","BEZEICHNUNG":"Heide (Holst)","STELLE_ART":"Bf","KUERZEL":"AHI","GK_R_DGN":3506636.614,"GK_H_DGN":6007098.776}},{"type":"Feature","geometry":{"type":"Point","coordinates":[9.05477845,54.47213021]},"properties":{"STRECKE_NR":1210,"RICHTUNG":"0","KM_I":115820061,"KM_L":"158.2 + 61","BEZEICHNUNG":"Husum","STELLE_ART":"Bf","KUERZEL":"AHM","GK_R_DGN":3503627.373,"GK_H_DGN":6038028.032}},{"type":"Feature","geometry":{"type":"Point","coordinates":[8.96990463,54.62142212]},"properties":{"STRECKE_NR":1210,"RICHTUNG":"0","KM_I":117670081,"KM_L":"176.7 + 81","BEZEICHNUNG":"Bredstedt","STELLE_ART":"Bf","KUERZEL":"ABST","GK_R_DGN":3498132.018,"GK_H_DGN":6054645.422}},{"type":"Feature","geometry":{"type":"Point","coordinates":[8.91804982,54.73741441]},"properties":{"STRECKE_NR":1210,"RICHTUNG":"0","KM_I":119020082,"KM_L":"190.2 + 82","BEZEICHNUNG":"Stedesand","STELLE_ART":"Bf","KUERZEL":"ASDS","GK_R_DGN":3494797.533,"GK_H_DGN":6067559.997}},{"type":"Feature","geometry":{"type":"Point","coordinates":[8.86999728,54.7577809]},"properties":{"STRECKE_NR":1210,"RICHTUNG":"0","KM_I":119410048,"KM_L":"194.1 + 48","BEZEICHNUNG":"Lindholm","STELLE_ART":"Bf","KUERZEL":"ALH","GK_R_DGN":3491706.624,"GK_H_DGN":6069831.83}},{"type":"Feature","geometry":{"type":"Point","coordinates":[8.8346124,54.78956726]},"properties":{"STRECKE_NR":1210,"RICHTUNG":"0","KM_I":119840050,"KM_L":"198.4 + 50","BEZEICHNUNG":"Niebüll","STELLE_ART":"Bf","KUERZEL":"ANB","GK_R_DGN":3489436.939,"GK_H_DGN":6073375.037}},{"type":"Feature","geometry":{"type":"Point","coordinates":[8.75308871,54.82203995]},"properties":{"STRECKE_NR":1210,"RICHTUNG":"0","KM_I":120500064,"KM_L":"205.0 + 64","BEZEICHNUNG":"Lehnshallig","STELLE_ART":"Bf","KUERZEL":"ALHG","GK_R_DGN":3484205.407,"GK_H_DGN":6077005.279}},{"type":"Feature","geometry":{"type":"Point","coordinates":[8.67678164,54.86182889]},"properties":{"STRECKE_NR":1210,"RICHTUNG":"0","KM_I":121160087,"KM_L":"211.6 + 87","BEZEICHNUNG":"Klanxbüll","STELLE_ART":"Bf","KUERZEL":"AKX","GK_R_DGN":3479321.092,"GK_H_DGN":6081454.505}},{"type":"Feature","geometry":{"type":"Point","coordinates":[8.43242226,54.8722192]},"properties":{"STRECKE_NR":1210,"RICHTUNG":"0","KM_I":122870097,"KM_L":"228.7 + 97","BEZEICHNUNG":"Morsum (Sylt)","STELLE_ART":"Bf","KUERZEL":"AMM","GK_R_DGN":3463639.466,"GK_H_DGN":6082710.891}},{"type":"Feature","geometry":{"type":"Point","coordinates":[8.36888049,54.88879485]},"properties":{"STRECKE_NR":1210,"RICHTUNG":"0","KM_I":123330022,"KM_L":"233.3 + 22","BEZEICHNUNG":"Keitum","STELLE_ART":"Bf","KUERZEL":"AKI","GK_R_DGN":3459576.979,"GK_H_DGN":6084590.966}},{"type":"Feature","geometry":{"type":"Point","coordinates":[8.30987534,54.90763719]},"properties":{"STRECKE_NR":1210,"RICHTUNG":"0","KM_I":123760081,"KM_L":"237.6 + 81","BEZEICHNUNG":"Westerland (Sylt)","STELLE_ART":"Bf","KUERZEL":"AWLA","GK_R_DGN":3455811.339,"GK_H_DGN":6086724.177}},{"type":"Feature","geometry":{"type":"Point","coordinates":[9.38316972,53.92545676]},"properties":{"STRECKE_NR":1214,"RICHTUNG":"0","KM_I":100000030,"KM_L":"0.0 + 30","BEZEICHNUNG":"Wilster","STELLE_ART":"Bf","KUERZEL":"AWIR","GK_R_DGN":3525247.344,"GK_H_DGN":5977245.517}},{"type":"Feature","geometry":{"type":"Point","coordinates":[9.15973009,53.89836124]},"properties":{"STRECKE_NR":1214,"RICHTUNG":"0","KM_I":101560048,"KM_L":"15.6 + 48","BEZEICHNUNG":"Brunsbüttel","STELLE_ART":"Bf","KUERZEL":"ABK","GK_R_DGN":3510575.883,"GK_H_DGN":5974173.506}},{"type":"Feature","geometry":{"type":"Point","coordinates":[9.11745913,53.98999437]},"properties":{"STRECKE_NR":1215,"RICHTUNG":"0","KM_I":100000027,"KM_L":"0.0 + 27","BEZEICHNUNG":"St Michaelisdonn","STELLE_ART":"Bf","KUERZEL":"ASD","GK_R_DGN":3507780.299,"GK_H_DGN":5984367.142}},{"type":"Feature","geometry":{"type":"Point","coordinates":[9.93459566,53.55257899]},"properties":{"STRECKE_NR":1220,"RICHTUNG":"0","KM_I":100070010,"KM_L":"0.7 + 10","BEZEICHNUNG":"Hamburg-Altona","STELLE_ART":"Bf","KUERZEL":"AA","GK_R_DGN":3562017.006,"GK_H_DGN":5936082.765}},{"type":"Feature","geometry":{"type":"Point","coordinates":[9.92422843,53.58169333]},"properties":{"STRECKE_NR":1220,"RICHTUNG":"0","KM_I":100410049,"KM_L":"4.1 + 49","BEZEICHNUNG":"Hamburg-Langenfelde Bbf","STELLE_ART":"Bf","KUERZEL":"ALA","GK_R_DGN":3561287.872,"GK_H_DGN":5939313.993}},{"type":"Feature","geometry":{"type":"Point","coordinates":[9.92037053,53.5867292]},"properties":{"STRECKE_NR":1220,"RICHTUNG":"0","KM_I":100470065,"KM_L":"4.7 + 65","BEZEICHNUNG":"Hamburg-Langenfelde Abzw","STELLE_ART":"Bft Abzw","KUERZEL":"ALAA","GK_R_DGN":3561025.123,"GK_H_DGN":5939871.137}},{"type":"Feature","geometry":{"type":"Point","coordinates":[9.79730264,53.65527933]},"properties":{"STRECKE_NR":1220,"RICHTUNG":"0","KM_I":101590053,"KM_L":"15.9 + 53","BEZEICHNUNG":"Pinneberg","STELLE_ART":"Bf","KUERZEL":"AP","GK_R_DGN":3552789.963,"GK_H_DGN":5947402.046}},{"type":"Feature","geometry":{"type":"Point","coordinates":[9.71487246,53.69733908]},"properties":{"STRECKE_NR":1220,"RICHTUNG":"0","KM_I":102310073,"KM_L":"23.1 + 73","BEZEICHNUNG":"Tornesch","STELLE_ART":"Bf","KUERZEL":"ATM","GK_R_DGN":3547293.093,"GK_H_DGN":5952025.188}},{"type":"Feature","geometry":{"type":"Point","coordinates":[9.65898822,53.75521139]},"properties":{"STRECKE_NR":1220,"RICHTUNG":"0","KM_I":103060097,"KM_L":"30.6 + 97","BEZEICHNUNG":"Elmshorn","STELLE_ART":"Bf","KUERZEL":"AEL","GK_R_DGN":3543542.281,"GK_H_DGN":5958430.541}},{"type":"Feature","geometry":{"type":"Point","coordinates":[9.68068515,53.85261785]},"properties":{"STRECKE_NR":1220,"RICHTUNG":"0","KM_I":104230077,"KM_L":"42.3 + 77","BEZEICHNUNG":"Dauenhof","STELLE_ART":"Bf","KUERZEL":"ADH","GK_R_DGN":3544869.426,"GK_H_DGN":5969285.215}},{"type":"Feature","geometry":{"type":"Point","coordinates":[9.74763578,53.93188878]},"properties":{"STRECKE_NR":1220,"RICHTUNG":"0","KM_I":105220028,"KM_L":"52.2 + 28","BEZEICHNUNG":"Wrist","STELLE_ART":"Bf","KUERZEL":"AWST","GK_R_DGN":3549182.111,"GK_H_DGN":5978152.376}},{"type":"Feature","geometry":{"type":"Point","coordinates":[9.82318083,53.98984351]},"properties":{"STRECKE_NR":1220,"RICHTUNG":"0","KM_I":106050010,"KM_L":"60.5 + 10","BEZEICHNUNG":"Brokstedt","STELLE_ART":"Bf","KUERZEL":"ABRS","GK_R_DGN":3554069.004,"GK_H_DGN":5984657.728}},{"type":"Feature","geometry":{"type":"Point","coordinates":[9.98003369,54.07632917]},"properties":{"STRECKE_NR":1220,"RICHTUNG":"0","KM_I":107460088,"KM_L":"74.6 + 88","BEZEICHNUNG":"Neumünster","STELLE_ART":"Bf","KUERZEL":"AN","GK_R_DGN":3564223.529,"GK_H_DGN":5994414.547}},{"type":"Feature","geometry":{"type":"Point","coordinates":[10.0437255,54.17441303]},"properties":{"STRECKE_NR":1220,"RICHTUNG":"0","KM_I":108660031,"KM_L":"86.6 + 31","BEZEICHNUNG":"Bordesholm","STELLE_ART":"Bf","KUERZEL":"ABRD","GK_R_DGN":3568231.136,"GK_H_DGN":6005391}},{"type":"Feature","geometry":{"type":"Point","coordinates":[10.10871756,54.28469025]},"properties":{"STRECKE_NR":1220,"RICHTUNG":"0","KM_I":110100000,"KM_L":"101.0 + 0","BEZEICHNUNG":"Meimersdorf","STELLE_ART":"Bf Abzw","KUERZEL":"AMR","GK_R_DGN":3572282.208,"GK_H_DGN":6017729.723}},{"type":"Feature","geometry":{"type":"Point","coordinates":[10.1318181,54.31496049]},"properties":{"STRECKE_NR":1220,"RICHTUNG":"0","KM_I":110550087,"KM_L":"105.5 + 87","BEZEICHNUNG":"Kiel Hbf","STELLE_ART":"Bf","KUERZEL":"AK","GK_R_DGN":3573732.533,"GK_H_DGN":6021122.778}},{"type":"Feature","geometry":{"type":"Point","coordinates":[9.88681817,53.55927977]},"properties":{"STRECKE_NR":1224,"RICHTUNG":"0","KM_I":100440041,"KM_L":"4.4 + 41","BEZEICHNUNG":"Hamburg-Othmarschen","STELLE_ART":"Bf","KUERZEL":"AOH","GK_R_DGN":3558841.309,"GK_H_DGN":5936788.02}},{"type":"Feature","geometry":{"type":"Point","coordinates":[9.86053143,53.55819785]},"properties":{"STRECKE_NR":1224,"RICHTUNG":"0","KM_I":100610088,"KM_L":"6.1 + 88","BEZEICHNUNG":"Hamburg-Klein Flottbek","STELLE_ART":"Bf","KUERZEL":"AFB","GK_R_DGN":3557100.904,"GK_H_DGN":5936646.24}},{"type":"Feature","geometry":{"type":"Point","coordinates":[9.81372857,53.56413053]},"properties":{"STRECKE_NR":1224,"RICHTUNG":"0","KM_I":100950055,"KM_L":"9.5 + 55","BEZEICHNUNG":"Hamburg-Blankenese","STELLE_ART":"Bf","KUERZEL":"AB","GK_R_DGN":3553991.935,"GK_H_DGN":5937270.049}},{"type":"Feature","geometry":{"type":"Point","coordinates":[9.93416088,53.5690245]},"properties":{"STRECKE_NR":1225,"RICHTUNG":"0","KM_I":100140020,"KM_L":"1.4 + 20","BEZEICHNUNG":"Hamburg Diebsteich","STELLE_ART":"Bf","KUERZEL":"ADT","GK_R_DGN":3561964.182,"GK_H_DGN":5937912.638}},{"type":"Feature","geometry":{"type":"Point","coordinates":[9.90597221,53.59631171]},"properties":{"STRECKE_NR":1225,"RICHTUNG":"0","KM_I":100620015,"KM_L":"6.2 + 15","BEZEICHNUNG":"Hamburg-Eidelstedt (S-Bahn)","STELLE_ART":"Bft","KUERZEL":"AEST","GK_R_DGN":3560058.083,"GK_H_DGN":5940925.37}},{"type":"Feature","geometry":{"type":"Point","coordinates":[9.89274671,53.60293984]},"properties":{"STRECKE_NR":1225,"RICHTUNG":"0","KM_I":100730060,"KM_L":"7.3 + 60","BEZEICHNUNG":"Hamburg Elbgaustraße","STELLE_ART":"Bf","KUERZEL":"AEGS","GK_R_DGN":3559173.226,"GK_H_DGN":5941651.971}},{"type":"Feature","geometry":{"type":"Point","coordinates":[9.79806961,53.65505359]},"properties":{"STRECKE_NR":1225,"RICHTUNG":"0","KM_I":101590000,"KM_L":"15.9 + 0","BEZEICHNUNG":"Pinneberg (S-Bahn)","STELLE_ART":"Bf","KUERZEL":"APS","GK_R_DGN":3552840.953,"GK_H_DGN":5947377.491}},{"type":"Feature","geometry":{"type":"Point","coordinates":[9.7969924,53.58117723]},"properties":{"STRECKE_NR":1226,"RICHTUNG":"0","KM_I":101260020,"KM_L":"12.6 + 20","BEZEICHNUNG":"Hamburg-Sülldorf","STELLE_ART":"Bf","KUERZEL":"ASDF","GK_R_DGN":3552861.818,"GK_H_DGN":5939154.691}},{"type":"Feature","geometry":{"type":"Point","coordinates":[9.70480757,53.58185629]},"properties":{"STRECKE_NR":1226,"RICHTUNG":"0","KM_I":101890059,"KM_L":"18.9 + 59","BEZEICHNUNG":"Wedel (Holst)","STELLE_ART":"Bf","KUERZEL":"AWL","GK_R_DGN":3546755.651,"GK_H_DGN":5939165.872}},{"type":"Feature","geometry":{"type":"Point","coordinates":[9.92432208,53.58169625]},"properties":{"STRECKE_NR":1232,"RICHTUNG":"0","KM_I":100410049,"KM_L":"4.1 + 49","BEZEICHNUNG":"Hamburg-Langenfelde Bbf","STELLE_ART":"Bf","KUERZEL":"ALA","GK_R_DGN":3561294.07,"GK_H_DGN":5939314.399}},{"type":"Feature","geometry":{"type":"Point","coordinates":[9.92045611,53.58673709]},"properties":{"STRECKE_NR":1232,"RICHTUNG":"0","KM_I":100470065,"KM_L":"4.7 + 65","BEZEICHNUNG":"Hamburg-Langenfelde Abzw","STELLE_ART":"Bft Abzw","KUERZEL":"ALAA","GK_R_DGN":3561030.779,"GK_H_DGN":5939872.089}},{"type":"Feature","geometry":{"type":"Point","coordinates":[9.8817201,53.60827423]},"properties":{"STRECKE_NR":1232,"RICHTUNG":"0","KM_I":100830000,"KM_L":"8.3 + 0","BEZEICHNUNG":"Hamburg-Eidelstedt","STELLE_ART":"Bf","KUERZEL":"AE","GK_R_DGN":3558435.959,"GK_H_DGN":5942236.553}},{"type":"Feature","geometry":{"type":"Point","coordinates":[9.97264506,53.60283626]},"properties":{"STRECKE_NR":1234,"RICHTUNG":"0","KM_I":100590050,"KM_L":"5.9 + 50","BEZEICHNUNG":"Hamburg-Lokstedt","STELLE_ART":"Bf","KUERZEL":"ALOF","GK_R_DGN":3564462.275,"GK_H_DGN":5941709.752}},{"type":"Feature","geometry":{"type":"Point","coordinates":[10.03441971,53.60037735]},"properties":{"STRECKE_NR":1234,"RICHTUNG":"0","KM_I":101110000,"KM_L":"11.1 + 0","BEZEICHNUNG":"Hamburg-Barmbek","STELLE_ART":"Bf","KUERZEL":"ABAG","GK_R_DGN":3568555.426,"GK_H_DGN":5941493.753}},{"type":"Feature","geometry":{"type":"Point","coordinates":[10.00664692,53.63271616]},"properties":{"STRECKE_NR":1239,"RICHTUNG":"0","KM_I":101420010,"KM_L":"14.2 + 10","BEZEICHNUNG":"Hamburg Airport","STELLE_ART":"Bf","KUERZEL":"AAI","GK_R_DGN":3566665.989,"GK_H_DGN":5945066.447}},{"type":"Feature","geometry":{"type":"Point","coordinates":[9.9657725,53.56382629]},"properties":{"STRECKE_NR":1240,"RICHTUNG":"0","KM_I":128980017,"KM_L":"289.8 + 17","BEZEICHNUNG":"Hamburg Sternschanze (S-Bahn)","STELLE_ART":"Bf","KUERZEL":"ASST","GK_R_DGN":3564066.241,"GK_H_DGN":5937362.06}},{"type":"Feature","geometry":{"type":"Point","coordinates":[10.00802059,53.55289738]},"properties":{"STRECKE_NR":1241,"RICHTUNG":"0","KM_I":100010010,"KM_L":"0.1 + 10","BEZEICHNUNG":"Hamburg Hbf (S-Bahn)","STELLE_ART":"Bf","KUERZEL":"AHS","GK_R_DGN":3566882.651,"GK_H_DGN":5936184.565}},{"type":"Feature","geometry":{"type":"Point","coordinates":[10.02457591,53.55299884]},"properties":{"STRECKE_NR":1241,"RICHTUNG":"0","KM_I":100150030,"KM_L":"1.5 + 30","BEZEICHNUNG":"Hamburg Berliner Tor (Landwehr)","STELLE_ART":"Bft","KUERZEL":"ABTSL","GK_R_DGN":3567979.659,"GK_H_DGN":5936211.513}},{"type":"Feature","geometry":{"type":"Point","coordinates":[10.05643778,53.5648617]},"properties":{"STRECKE_NR":1241,"RICHTUNG":"0","KM_I":100410070,"KM_L":"4.1 + 70","BEZEICHNUNG":"Hamburg Hasselbrook (S-Bahn)","STELLE_ART":"Bf","KUERZEL":"AHSB","GK_R_DGN":3570071.646,"GK_H_DGN":5937562.588}},{"type":"Feature","geometry":{"type":"Point","coordinates":[10.04579692,53.58724112]},"properties":{"STRECKE_NR":1241,"RICHTUNG":"0","KM_I":100700130,"KM_L":"7.0 + 130","BEZEICHNUNG":"Hamburg-Barmbek (S-Bahn)","STELLE_ART":"Bf","KUERZEL":"ABAP","GK_R_DGN":3569330.061,"GK_H_DGN":5940042.81}},{"type":"Feature","geometry":{"type":"Point","coordinates":[10.03171031,53.62107201]},"properties":{"STRECKE_NR":1241,"RICHTUNG":"0","KM_I":101120083,"KM_L":"11.2 + 83","BEZEICHNUNG":"Hamburg-Ohlsdorf (S-Bahn)","STELLE_ART":"Bf","KUERZEL":"AOPS","GK_R_DGN":3568342.678,"GK_H_DGN":5943794.295}},{"type":"Feature","geometry":{"type":"Point","coordinates":[10.09380677,53.65186911]},"properties":{"STRECKE_NR":1241,"RICHTUNG":"0","KM_I":101700022,"KM_L":"17.0 + 22","BEZEICHNUNG":"Hamburg-Poppenbüttel","STELLE_ART":"Bf","KUERZEL":"APB","GK_R_DGN":3572398.662,"GK_H_DGN":5947283.12}},{"type":"Feature","geometry":{"type":"Point","coordinates":[10.07717987,53.56984627]},"properties":{"STRECKE_NR":1242,"RICHTUNG":"0","KM_I":105820000,"KM_L":"58.2 + 0","BEZEICHNUNG":"Hamburg-Wandsbek","STELLE_ART":"Bf","KUERZEL":"AWN","GK_R_DGN":3571437.5,"GK_H_DGN":5938137.912}},{"type":"Feature","geometry":{"type":"Point","coordinates":[10.00782021,53.5528741]},"properties":{"STRECKE_NR":1244,"RICHTUNG":"0","KM_I":100010006,"KM_L":"0.1 + 6","BEZEICHNUNG":"Hamburg Hbf (S-Bahn)","STELLE_ART":"Bf","KUERZEL":"AHS","GK_R_DGN":3566869.408,"GK_H_DGN":5936181.786}},{"type":"Feature","geometry":{"type":"Point","coordinates":[10.02492677,53.55263346]},"properties":{"STRECKE_NR":1244,"RICHTUNG":"0","KM_I":100150028,"KM_L":"1.5 + 28","BEZEICHNUNG":"Hamburg Berliner Tor (Bergedorf)","STELLE_ART":"Bft","KUERZEL":"ABTSB","GK_R_DGN":3568003.497,"GK_H_DGN":5936171.184}},{"type":"Feature","geometry":{"type":"Point","coordinates":[10.20617378,53.4898693]},"properties":{"STRECKE_NR":1244,"RICHTUNG":"0","KM_I":101630045,"KM_L":"16.3 + 45","BEZEICHNUNG":"Hamburg-Bergedorf","STELLE_ART":"Bf","KUERZEL":"ABG","GK_R_DGN":3580133.496,"GK_H_DGN":5929374.423}},{"type":"Feature","geometry":{"type":"Point","coordinates":[10.27803785,53.52067991]},"properties":{"STRECKE_NR":1244,"RICHTUNG":"0","KM_I":102240007,"KM_L":"22.4 + 7","BEZEICHNUNG":"Wohltorf","STELLE_ART":"Bf","KUERZEL":"AWLF","GK_R_DGN":3584841.614,"GK_H_DGN":5932886.369}},{"type":"Feature","geometry":{"type":"Point","coordinates":[10.31461282,53.53004764]},"properties":{"STRECKE_NR":1244,"RICHTUNG":"0","KM_I":102500093,"KM_L":"25.0 + 93","BEZEICHNUNG":"Aumühle","STELLE_ART":"Bf","KUERZEL":"AAH","GK_R_DGN":3587248.081,"GK_H_DGN":5933973.013}},{"type":"Feature","geometry":{"type":"Point","coordinates":[10.00612257,53.55352798]},"properties":{"STRECKE_NR":1245,"RICHTUNG":"0","KM_I":100270034,"KM_L":"2.7 + 34","BEZEICHNUNG":"Hamburg Hbf","STELLE_ART":"Bf","KUERZEL":"AH","GK_R_DGN":3566755.872,"GK_H_DGN":5936252.966}},{"type":"Feature","geometry":{"type":"Point","coordinates":[10.00598411,53.55350309]},"properties":{"STRECKE_NR":1250,"RICHTUNG":"0","KM_I":135530028,"KM_L":"355.3 + 28","BEZEICHNUNG":"Hamburg Hbf","STELLE_ART":"Bf","KUERZEL":"AH","GK_R_DGN":3566746.735,"GK_H_DGN":5936250.066}},{"type":"Feature","geometry":{"type":"Point","coordinates":[9.97794948,53.46532427]},"properties":{"STRECKE_NR":1252,"RICHTUNG":"0","KM_I":100000000,"KM_L":"0.0 + 0","BEZEICHNUNG":"Hamburg Unterelbe","STELLE_ART":"Bf","KUERZEL":"AHB","GK_R_DGN":3565023.497,"GK_H_DGN":5926410.722}},{"type":"Feature","geometry":{"type":"Point","coordinates":[9.96091196,53.47229507]},"properties":{"STRECKE_NR":1252,"RICHTUNG":"0","KM_I":100140028,"KM_L":"1.4 + 28","BEZEICHNUNG":"Hamburg Unterelbe Seehafen","STELLE_ART":"Bft","KUERZEL":"AHO","GK_R_DGN":3563881.578,"GK_H_DGN":5927171.118}},{"type":"Feature","geometry":{"type":"Point","coordinates":[10.00119017,53.47944986]},"properties":{"STRECKE_NR":1253,"RICHTUNG":"0","KM_I":100050024,"KM_L":"0.5 + 24","BEZEICHNUNG":"Hamburg Süderelbbrücke","STELLE_ART":"Bft Abzw","KUERZEL":"ASE","GK_R_DGN":3566544.833,"GK_H_DGN":5928004.175}},{"type":"Feature","geometry":{"type":"Point","coordinates":[10.03339161,53.42146818]},"properties":{"STRECKE_NR":1255,"RICHTUNG":"0","KM_I":100000000,"KM_L":"0.0 + 0","BEZEICHNUNG":"Meckelfeld","STELLE_ART":"Bft Abzw","KUERZEL":"AMD","GK_R_DGN":3568776.12,"GK_H_DGN":5921581.966}},{"type":"Feature","geometry":{"type":"Point","coordinates":[9.99085078,53.45606705]},"properties":{"STRECKE_NR":1255,"RICHTUNG":"0","KM_I":100480000,"KM_L":"4.8 + 0","BEZEICHNUNG":"Hamburg-Harburg","STELLE_ART":"Bf","KUERZEL":"AHAR","GK_R_DGN":3565894.588,"GK_H_DGN":5925392.32}},{"type":"Feature","geometry":{"type":"Point","coordinates":[10.00119017,53.47944986]},"properties":{"STRECKE_NR":1255,"RICHTUNG":"0","KM_I":100750010,"KM_L":"7.5 + 10","BEZEICHNUNG":"Hamburg Süderelbbrücke","STELLE_ART":"Bft Abzw","KUERZEL":"ASE","GK_R_DGN":3566544.833,"GK_H_DGN":5928004.175}},{"type":"Feature","geometry":{"type":"Point","coordinates":[10.00543792,53.49829462]},"properties":{"STRECKE_NR":1255,"RICHTUNG":"0","KM_I":100960031,"KM_L":"9.6 + 31","BEZEICHNUNG":"Hamburg-Wilhelmsburg","STELLE_ART":"Bf","KUERZEL":"AWLB","GK_R_DGN":3566797.249,"GK_H_DGN":5930105.375}},{"type":"Feature","geometry":{"type":"Point","coordinates":[9.984312,53.54951063]},"properties":{"STRECKE_NR":1270,"RICHTUNG":"0","KM_I":100200012,"KM_L":"2.0 + 12","BEZEICHNUNG":"Hamburg-Stadthausbrücke","STELLE_ART":"Bft","KUERZEL":"ASHS","GK_R_DGN":3565316.618,"GK_H_DGN":5935785.671}},{"type":"Feature","geometry":{"type":"Point","coordinates":[9.97054244,53.54632062]},"properties":{"STRECKE_NR":1270,"RICHTUNG":"0","KM_I":100300028,"KM_L":"3.0 + 28","BEZEICHNUNG":"Hamburg Landungsbrücken","STELLE_ART":"Bf","KUERZEL":"ALAS","GK_R_DGN":3564408.829,"GK_H_DGN":5935418.126}},{"type":"Feature","geometry":{"type":"Point","coordinates":[9.93449991,53.55123257]},"properties":{"STRECKE_NR":1270,"RICHTUNG":"0","KM_I":100580086,"KM_L":"5.8 + 86","BEZEICHNUNG":"Hamburg-Altona (S-Bahn)","STELLE_ART":"Bf","KUERZEL":"AAS","GK_R_DGN":3562012.626,"GK_H_DGN":5935932.836}},{"type":"Feature","geometry":{"type":"Point","coordinates":[10.02363361,53.54646137]},"properties":{"STRECKE_NR":1271,"RICHTUNG":"0","KM_I":100160037,"KM_L":"1.6 + 37","BEZEICHNUNG":"Hamburg-Hammerbrook","STELLE_ART":"Bft","KUERZEL":"AHAB","GK_R_DGN":3567927.667,"GK_H_DGN":5935483.055}},{"type":"Feature","geometry":{"type":"Point","coordinates":[10.00683742,53.49891997]},"properties":{"STRECKE_NR":1271,"RICHTUNG":"0","KM_I":100720032,"KM_L":"7.2 + 32","BEZEICHNUNG":"Hamburg-Wilhelmsburg (S-Bahn)","STELLE_ART":"Bf","KUERZEL":"AWFS","GK_R_DGN":3566889.134,"GK_H_DGN":5930176.281}},{"type":"Feature","geometry":{"type":"Point","coordinates":[9.98020332,53.46063721]},"properties":{"STRECKE_NR":1271,"RICHTUNG":"0","KM_I":101320031,"KM_L":"13.2 + 31","BEZEICHNUNG":"Hamburg-Harburg Rathaus","STELLE_ART":"Bf","KUERZEL":"AHRF","GK_R_DGN":3565180.345,"GK_H_DGN":5925891.157}},{"type":"Feature","geometry":{"type":"Point","coordinates":[9.85193618,53.47400779]},"properties":{"STRECKE_NR":1271,"RICHTUNG":"0","KM_I":102210027,"KM_L":"22.1 + 27","BEZEICHNUNG":"Hamburg-Neugraben (S-Bahn)","STELLE_ART":"Bf","KUERZEL":"ANRS","GK_R_DGN":3556643.36,"GK_H_DGN":5927269.732}},{"type":"Feature","geometry":{"type":"Point","coordinates":[9.876366,53.32427118]},"properties":{"STRECKE_NR":1280,"RICHTUNG":"0","KM_I":100000001,"KM_L":"0.0 + 1","BEZEICHNUNG":"Buchholz (Nordheide)","STELLE_ART":"Bf","KUERZEL":"ABLZ","GK_R_DGN":3558470.073,"GK_H_DGN":5910625.292}},{"type":"Feature","geometry":{"type":"Point","coordinates":[10.05984908,53.39854803]},"properties":{"STRECKE_NR":1280,"RICHTUNG":"0","KM_I":102170041,"KM_L":"21.7 + 41","BEZEICHNUNG":"Maschen Rbf","STELLE_ART":"Bf","KUERZEL":"AM","GK_R_DGN":3570572.851,"GK_H_DGN":5919057.035}},{"type":"Feature","geometry":{"type":"Point","coordinates":[10.03363844,53.42127589]},"properties":{"STRECKE_NR":1280,"RICHTUNG":"0","KM_I":102460000,"KM_L":"24.6 + 0","BEZEICHNUNG":"Meckelfeld","STELLE_ART":"Bft Abzw","KUERZEL":"AMD","GK_R_DGN":3568792.839,"GK_H_DGN":5921560.804}},{"type":"Feature","geometry":{"type":"Point","coordinates":[9.99224554,53.45626803]},"properties":{"STRECKE_NR":1280,"RICHTUNG":"0","KM_I":102940000,"KM_L":"29.4 + 0","BEZEICHNUNG":"Hamburg-Harburg","STELLE_ART":"Bf","KUERZEL":"AHAR","GK_R_DGN":3565986.923,"GK_H_DGN":5925415.976}},{"type":"Feature","geometry":{"type":"Point","coordinates":[10.07155261,53.52800678]},"properties":{"STRECKE_NR":1280,"RICHTUNG":"0","KM_I":104230030,"KM_L":"42.3 + 30","BEZEICHNUNG":"Hamburg-Rothenburgsort","STELLE_ART":"Bf","KUERZEL":"AHRO","GK_R_DGN":3571134.772,"GK_H_DGN":5933475.959}},{"type":"Feature","geometry":{"type":"Point","coordinates":[10.11257355,53.50733004]},"properties":{"STRECKE_NR":1280,"RICHTUNG":"0","KM_I":104580094,"KM_L":"45.8 + 94","BEZEICHNUNG":"Hamburg-Billwerder","STELLE_ART":"Bf","KUERZEL":"AHBI","GK_R_DGN":3573890.861,"GK_H_DGN":5931216.559}},{"type":"Feature","geometry":{"type":"Point","coordinates":[10.10956361,53.38778257]},"properties":{"STRECKE_NR":1281,"RICHTUNG":"0","KM_I":115810067,"KM_L":"158.1 + 67","BEZEICHNUNG":"Stelle","STELLE_ART":"Bf","KUERZEL":"ASTE","GK_R_DGN":3573898.169,"GK_H_DGN":5917909.242}},{"type":"Feature","geometry":{"type":"Point","coordinates":[9.38987721,53.11237597]},"properties":{"STRECKE_NR":1283,"RICHTUNG":"0","KM_I":128240049,"KM_L":"282.4 + 49","BEZEICHNUNG":"Rotenburg (Wümme)","STELLE_ART":"Bf","KUERZEL":"AROG","GK_R_DGN":3526183.092,"GK_H_DGN":5886756.37}},{"type":"Feature","geometry":{"type":"Point","coordinates":[9.49773613,53.16647295]},"properties":{"STRECKE_NR":1283,"RICHTUNG":"0","KM_I":129190080,"KM_L":"291.9 + 80","BEZEICHNUNG":"Scheeßel","STELLE_ART":"Bf","KUERZEL":"ASL","GK_R_DGN":3533363.68,"GK_H_DGN":5892821.415}},{"type":"Feature","geometry":{"type":"Point","coordinates":[9.56312888,53.19687816]},"properties":{"STRECKE_NR":1283,"RICHTUNG":"0","KM_I":129760032,"KM_L":"297.6 + 32","BEZEICHNUNG":"Lauenbrück","STELLE_ART":"Bf","KUERZEL":"ALUB","GK_R_DGN":3537710.362,"GK_H_DGN":5896237.545}},{"type":"Feature","geometry":{"type":"Point","coordinates":[9.7319381,53.27203686]},"properties":{"STRECKE_NR":1283,"RICHTUNG":"0","KM_I":131160095,"KM_L":"311.6 + 95","BEZEICHNUNG":"Tostedt","STELLE_ART":"Bf","KUERZEL":"ATST","GK_R_DGN":3548906.256,"GK_H_DGN":5904703.866}},{"type":"Feature","geometry":{"type":"Point","coordinates":[9.87605014,53.32481101]},"properties":{"STRECKE_NR":1283,"RICHTUNG":"0","KM_I":132320000,"KM_L":"323.2 + 0","BEZEICHNUNG":"Buchholz (Nordheide)","STELLE_ART":"Bf","KUERZEL":"ABLZ","GK_R_DGN":3558448.29,"GK_H_DGN":5910685.11}},{"type":"Feature","geometry":{"type":"Point","coordinates":[10.10916407,53.38757235]},"properties":{"STRECKE_NR":1284,"RICHTUNG":"0","KM_I":101810052,"KM_L":"18.1 + 52","BEZEICHNUNG":"Stelle","STELLE_ART":"Bf","KUERZEL":"ASTE","GK_R_DGN":3573871.951,"GK_H_DGN":5917885.434}},{"type":"Feature","geometry":{"type":"Point","coordinates":[8.59115531,53.59175444]},"properties":{"STRECKE_NR":1310,"RICHTUNG":"0","KM_I":119070043,"KM_L":"190.7 + 43","BEZEICHNUNG":"Bremerhaven-Speckenbüttel","STELLE_ART":"Bft Abzw","KUERZEL":"HBHP","GK_R_DGN":3473004.305,"GK_H_DGN":5940114.191}},{"type":"Feature","geometry":{"type":"Point","coordinates":[8.57567341,53.68864085]},"properties":{"STRECKE_NR":1310,"RICHTUNG":"0","KM_I":120530078,"KM_L":"205.3 + 78","BEZEICHNUNG":"Dorum","STELLE_ART":"Bf","KUERZEL":"ADO","GK_R_DGN":3472043.487,"GK_H_DGN":5950903.335}},{"type":"Feature","geometry":{"type":"Point","coordinates":[8.6205861,53.7783174]},"properties":{"STRECKE_NR":1310,"RICHTUNG":"0","KM_I":121610059,"KM_L":"216.1 + 59","BEZEICHNUNG":"Nordholz","STELLE_ART":"Bf","KUERZEL":"ANZ","GK_R_DGN":3475063.858,"GK_H_DGN":5960867.447}},{"type":"Feature","geometry":{"type":"Point","coordinates":[8.88706531,53.06161754]},"properties":{"STRECKE_NR":1400,"RICHTUNG":"0","KM_I":100030045,"KM_L":"0.3 + 45","BEZEICHNUNG":"Bremen-Sebaldsbrück","STELLE_ART":"Bf","KUERZEL":"HBSB","GK_R_DGN":3492504.742,"GK_H_DGN":5881042.518}},{"type":"Feature","geometry":{"type":"Point","coordinates":[8.90683672,53.05173919]},"properties":{"STRECKE_NR":1400,"RICHTUNG":"0","KM_I":100200075,"KM_L":"2.0 + 75","BEZEICHNUNG":"Bremen-Sebaldsbrück Wbf","STELLE_ART":"Bf","KUERZEL":"HBAW","GK_R_DGN":3493828.813,"GK_H_DGN":5879941.283}},{"type":"Feature","geometry":{"type":"Point","coordinates":[8.81352262,53.08318476]},"properties":{"STRECKE_NR":1401,"RICHTUNG":"0","KM_I":100510001,"KM_L":"5.1 + 1","BEZEICHNUNG":"Bremen Hbf","STELLE_ART":"Bf","KUERZEL":"HB","GK_R_DGN":3487580.597,"GK_H_DGN":5883452.963}},{"type":"Feature","geometry":{"type":"Point","coordinates":[8.78045532,53.11056889]},"properties":{"STRECKE_NR":1401,"RICHTUNG":"0","KM_I":100890013,"KM_L":"8.9 + 13","BEZEICHNUNG":"Bremen Rbf","STELLE_ART":"Bf","KUERZEL":"HBR","GK_R_DGN":3485374.173,"GK_H_DGN":5886506.746}},{"type":"Feature","geometry":{"type":"Point","coordinates":[9.02225429,53.08403505]},"properties":{"STRECKE_NR":1404,"RICHTUNG":"0","KM_I":101710038,"KM_L":"17.1 + 38","BEZEICHNUNG":"Sagehorn","STELLE_ART":"Bf","KUERZEL":"ASAG","GK_R_DGN":3501567.205,"GK_H_DGN":5883531.564}},{"type":"Feature","geometry":{"type":"Point","coordinates":[8.70482167,53.15978577]},"properties":{"STRECKE_NR":1423,"RICHTUNG":"0","KM_I":100000024,"KM_L":"0.0 + 24","BEZEICHNUNG":"Bremen-Burg","STELLE_ART":"Bf","KUERZEL":"HBB","GK_R_DGN":3480331.939,"GK_H_DGN":5892002.181}},{"type":"Feature","geometry":{"type":"Point","coordinates":[8.63095221,53.1702288]},"properties":{"STRECKE_NR":1423,"RICHTUNG":"0","KM_I":100570050,"KM_L":"5.7 + 50","BEZEICHNUNG":"Bremen-Vegesack","STELLE_ART":"Bf","KUERZEL":"HBV","GK_R_DGN":3475396.918,"GK_H_DGN":5893187.288}},{"type":"Feature","geometry":{"type":"Point","coordinates":[8.22261466,53.14410573]},"properties":{"STRECKE_NR":1500,"RICHTUNG":"0","KM_I":100000000,"KM_L":"0.0 + 0","BEZEICHNUNG":"Oldenburg (Oldb) Hbf","STELLE_ART":"Bf","KUERZEL":"HOLD","GK_R_DGN":3448059.19,"GK_H_DGN":5890498.836}},{"type":"Feature","geometry":{"type":"Point","coordinates":[8.33488447,53.11839033]},"properties":{"STRECKE_NR":1500,"RICHTUNG":"0","KM_I":100820000,"KM_L":"8.2 + 0","BEZEICHNUNG":"Wüsting","STELLE_ART":"Bf","KUERZEL":"HWUE","GK_R_DGN":3455544.768,"GK_H_DGN":5887561.4}},{"type":"Feature","geometry":{"type":"Point","coordinates":[8.46029036,53.10948268]},"properties":{"STRECKE_NR":1500,"RICHTUNG":"0","KM_I":101670024,"KM_L":"16.7 + 24","BEZEICHNUNG":"Hude","STELLE_ART":"Bf","KUERZEL":"HHUD","GK_R_DGN":3463933.48,"GK_H_DGN":5886499.484}},{"type":"Feature","geometry":{"type":"Point","coordinates":[8.53274052,53.0991391]},"properties":{"STRECKE_NR":1500,"RICHTUNG":"0","KM_I":102180018,"KM_L":"21.8 + 18","BEZEICHNUNG":"Bookholzberg","STELLE_ART":"Bf","KUERZEL":"HBHB","GK_R_DGN":3468777.684,"GK_H_DGN":5885314.282}},{"type":"Feature","geometry":{"type":"Point","coordinates":[8.62942916,53.05279039]},"properties":{"STRECKE_NR":1500,"RICHTUNG":"0","KM_I":103060097,"KM_L":"30.6 + 97","BEZEICHNUNG":"Delmenhorst","STELLE_ART":"Bf","KUERZEL":"HD","GK_R_DGN":3475227.46,"GK_H_DGN":5880118.429}},{"type":"Feature","geometry":{"type":"Point","coordinates":[8.67082455,53.0562958]},"properties":{"STRECKE_NR":1500,"RICHTUNG":"0","KM_I":103350000,"KM_L":"33.5 + 0","BEZEICHNUNG":"Delmenhorst Df","STELLE_ART":"Bft","KUERZEL":"HD  F","GK_R_DGN":3478005.003,"GK_H_DGN":5880494.987}},{"type":"Feature","geometry":{"type":"Point","coordinates":[8.67972941,53.05706083]},"properties":{"STRECKE_NR":1500,"RICHTUNG":"0","KM_I":103410003,"KM_L":"34.1 + 3","BEZEICHNUNG":"Delmenhorst Heidkrug","STELLE_ART":"Bft","KUERZEL":"HHEI","GK_R_DGN":3478602.447,"GK_H_DGN":5880577.419}},{"type":"Feature","geometry":{"type":"Point","coordinates":[8.78620892,53.07647025]},"properties":{"STRECKE_NR":1500,"RICHTUNG":"0","KM_I":104170079,"KM_L":"41.7 + 79","BEZEICHNUNG":"Bremen-Neustadt","STELLE_ART":"Bf","KUERZEL":"HBN","GK_R_DGN":3485748.141,"GK_H_DGN":5882710.837}},{"type":"Feature","geometry":{"type":"Point","coordinates":[8.81322904,53.08306717]},"properties":{"STRECKE_NR":1500,"RICHTUNG":"0","KM_I":104430071,"KM_L":"44.3 + 71","BEZEICHNUNG":"Bremen Hbf","STELLE_ART":"Bf","KUERZEL":"HB","GK_R_DGN":3487560.891,"GK_H_DGN":5883439.928}},{"type":"Feature","geometry":{"type":"Point","coordinates":[8.2547712,53.05499756]},"properties":{"STRECKE_NR":1502,"RICHTUNG":"0","KM_I":101050025,"KM_L":"10.5 + 25","BEZEICHNUNG":"Sandkrug","STELLE_ART":"Bf","KUERZEL":"HSAK","GK_R_DGN":3450107.681,"GK_H_DGN":5880559.56}},{"type":"Feature","geometry":{"type":"Point","coordinates":[8.26639485,52.99075248]},"properties":{"STRECKE_NR":1502,"RICHTUNG":"0","KM_I":101790000,"KM_L":"17.9 + 0","BEZEICHNUNG":"Huntlosen","STELLE_ART":"Bf","KUERZEL":"HHUL","GK_R_DGN":3450813.912,"GK_H_DGN":5873402.097}},{"type":"Feature","geometry":{"type":"Point","coordinates":[8.24136074,52.94531781]},"properties":{"STRECKE_NR":1502,"RICHTUNG":"0","KM_I":102330022,"KM_L":"23.3 + 22","BEZEICHNUNG":"Großenkneten","STELLE_ART":"Bf","KUERZEL":"HGRK","GK_R_DGN":3449079.433,"GK_H_DGN":5868363.498}},{"type":"Feature","geometry":{"type":"Point","coordinates":[8.20929261,52.89853887]},"properties":{"STRECKE_NR":1502,"RICHTUNG":"0","KM_I":102900016,"KM_L":"29.0 + 16","BEZEICHNUNG":"Ahlhorn","STELLE_ART":"Bf","KUERZEL":"HAHO","GK_R_DGN":3446866.494,"GK_H_DGN":5863181.136}},{"type":"Feature","geometry":{"type":"Point","coordinates":[8.13616255,52.87024578]},"properties":{"STRECKE_NR":1502,"RICHTUNG":"0","KM_I":103500018,"KM_L":"35.0 + 18","BEZEICHNUNG":"Höltinghausen","STELLE_ART":"Bf","KUERZEL":"HHOE","GK_R_DGN":3441907.551,"GK_H_DGN":5860089.354}},{"type":"Feature","geometry":{"type":"Point","coordinates":[8.0558283,52.84399359]},"properties":{"STRECKE_NR":1502,"RICHTUNG":"0","KM_I":104110069,"KM_L":"41.1 + 69","BEZEICHNUNG":"Cloppenburg","STELLE_ART":"Bf","KUERZEL":"HCLP","GK_R_DGN":3436459.809,"GK_H_DGN":5857236.09}},{"type":"Feature","geometry":{"type":"Point","coordinates":[7.96591146,52.75331759]},"properties":{"STRECKE_NR":1502,"RICHTUNG":"0","KM_I":105290097,"KM_L":"52.9 + 97","BEZEICHNUNG":"Bartmannsholte","STELLE_ART":"Bf","KUERZEL":"HBMA","GK_R_DGN":3430256.508,"GK_H_DGN":5847229.297}},{"type":"Feature","geometry":{"type":"Point","coordinates":[7.94541901,52.72388345]},"properties":{"STRECKE_NR":1502,"RICHTUNG":"0","KM_I":105650092,"KM_L":"56.5 + 92","BEZEICHNUNG":"Essen (Oldb)","STELLE_ART":"Bf","KUERZEL":"HESN","GK_R_DGN":3428824.955,"GK_H_DGN":5843974.067}},{"type":"Feature","geometry":{"type":"Point","coordinates":[7.94774695,52.67394677]},"properties":{"STRECKE_NR":1502,"RICHTUNG":"0","KM_I":106270028,"KM_L":"62.7 + 28","BEZEICHNUNG":"Quakenbrück","STELLE_ART":"Bf","KUERZEL":"HQ","GK_R_DGN":3428901.046,"GK_H_DGN":5838415.059}},{"type":"Feature","geometry":{"type":"Point","coordinates":[7.94245448,52.55106643]},"properties":{"STRECKE_NR":1502,"RICHTUNG":"0","KM_I":107670056,"KM_L":"76.7 + 56","BEZEICHNUNG":"Bersenbrück","STELLE_ART":"Bf","KUERZEL":"HBBR","GK_R_DGN":3428342.519,"GK_H_DGN":5824746.982}},{"type":"Feature","geometry":{"type":"Point","coordinates":[7.964338,52.50347141]},"properties":{"STRECKE_NR":1502,"RICHTUNG":"0","KM_I":108220059,"KM_L":"82.2 + 59","BEZEICHNUNG":"Alfhausen","STELLE_ART":"Bf","KUERZEL":"HAHS","GK_R_DGN":3429750.855,"GK_H_DGN":5819429.456}},{"type":"Feature","geometry":{"type":"Point","coordinates":[7.96751688,52.4391812]},"properties":{"STRECKE_NR":1502,"RICHTUNG":"0","KM_I":108940022,"KM_L":"89.4 + 22","BEZEICHNUNG":"Hesepe","STELLE_ART":"Bf","KUERZEL":"HHES","GK_R_DGN":3429864.461,"GK_H_DGN":5812272.722}},{"type":"Feature","geometry":{"type":"Point","coordinates":[7.97473618,52.41123554]},"properties":{"STRECKE_NR":1502,"RICHTUNG":"0","KM_I":109250086,"KM_L":"92.5 + 86","BEZEICHNUNG":"Bramsche","STELLE_ART":"Bf","KUERZEL":"HBRM","GK_R_DGN":3430311.274,"GK_H_DGN":5809156.211}},{"type":"Feature","geometry":{"type":"Point","coordinates":[7.94168677,52.39039256]},"properties":{"STRECKE_NR":1502,"RICHTUNG":"0","KM_I":109620052,"KM_L":"96.2 + 52","BEZEICHNUNG":"Achmer","STELLE_ART":"Bf","KUERZEL":"HAMR","GK_R_DGN":3428028.524,"GK_H_DGN":5806869.426}},{"type":"Feature","geometry":{"type":"Point","coordinates":[8.00418861,52.30184317]},"properties":{"STRECKE_NR":1502,"RICHTUNG":"0","KM_I":110800076,"KM_L":"108.0 + 76","BEZEICHNUNG":"Osnabrück-Eversburg","STELLE_ART":"Bf","KUERZEL":"HOE","GK_R_DGN":3432147.799,"GK_H_DGN":5796956.184}},{"type":"Feature","geometry":{"type":"Point","coordinates":[8.46061695,53.10976325]},"properties":{"STRECKE_NR":1503,"RICHTUNG":"0","KM_I":99999968,"KM_L":"-0.0 + -31","BEZEICHNUNG":"Hude","STELLE_ART":"Bf","KUERZEL":"HHUD","GK_R_DGN":3463955.586,"GK_H_DGN":5886530.542}},{"type":"Feature","geometry":{"type":"Point","coordinates":[8.46079509,53.14626918]},"properties":{"STRECKE_NR":1503,"RICHTUNG":"0","KM_I":100430033,"KM_L":"4.3 + 33","BEZEICHNUNG":"Neuenkoop","STELLE_ART":"Bf","KUERZEL":"HNKP","GK_R_DGN":3463998.102,"GK_H_DGN":5890593.078}},{"type":"Feature","geometry":{"type":"Point","coordinates":[8.47528417,53.18375674]},"properties":{"STRECKE_NR":1503,"RICHTUNG":"0","KM_I":100860014,"KM_L":"8.6 + 14","BEZEICHNUNG":"Berne","STELLE_ART":"Bf","KUERZEL":"HBER","GK_R_DGN":3464998.132,"GK_H_DGN":5894757.772}},{"type":"Feature","geometry":{"type":"Point","coordinates":[8.46400432,53.23428015]},"properties":{"STRECKE_NR":1503,"RICHTUNG":"0","KM_I":101470045,"KM_L":"14.7 + 45","BEZEICHNUNG":"Elsfleth","STELLE_ART":"Bf","KUERZEL":"HELS","GK_R_DGN":3464286.191,"GK_H_DGN":5900386.022}},{"type":"Feature","geometry":{"type":"Point","coordinates":[8.47247692,53.2786161]},"properties":{"STRECKE_NR":1503,"RICHTUNG":"0","KM_I":101980022,"KM_L":"19.8 + 22","BEZEICHNUNG":"Hammelwarden","STELLE_ART":"Bf","KUERZEL":"HHWD","GK_R_DGN":3464888.329,"GK_H_DGN":5905315.926}},{"type":"Feature","geometry":{"type":"Point","coordinates":[8.4811321,53.32871638]},"properties":{"STRECKE_NR":1503,"RICHTUNG":"0","KM_I":102550031,"KM_L":"25.5 + 31","BEZEICHNUNG":"Brake (Unterweser)","STELLE_ART":"Bf","KUERZEL":"HBKE","GK_R_DGN":3465506.144,"GK_H_DGN":5910887.365}},{"type":"Feature","geometry":{"type":"Point","coordinates":[8.45471656,53.39983074]},"properties":{"STRECKE_NR":1503,"RICHTUNG":"0","KM_I":103380076,"KM_L":"33.8 + 76","BEZEICHNUNG":"Rodenkirchen (Oldb)","STELLE_ART":"Bf","KUERZEL":"HRDK","GK_R_DGN":3463806.652,"GK_H_DGN":5918814.869}},{"type":"Feature","geometry":{"type":"Point","coordinates":[8.47602281,53.44473074]},"properties":{"STRECKE_NR":1503,"RICHTUNG":"0","KM_I":103910036,"KM_L":"39.1 + 36","BEZEICHNUNG":"Kleinensiel","STELLE_ART":"Bf","KUERZEL":"HKSI","GK_R_DGN":3465260.519,"GK_H_DGN":5923801.275}},{"type":"Feature","geometry":{"type":"Point","coordinates":[8.48738594,53.48368576]},"properties":{"STRECKE_NR":1503,"RICHTUNG":"0","KM_I":104360034,"KM_L":"43.6 + 34","BEZEICHNUNG":"Nordenham","STELLE_ART":"Bf","KUERZEL":"HNO","GK_R_DGN":3466046.7,"GK_H_DGN":5928131.213}},{"type":"Feature","geometry":{"type":"Point","coordinates":[8.48738594,53.48368576]},"properties":{"STRECKE_NR":1503,"RICHTUNG":"0","KM_I":104360034,"KM_L":"43.6 + 34","BEZEICHNUNG":"Nordenham","STELLE_ART":"Bf","KUERZEL":"HNO","GK_R_DGN":3466046.7,"GK_H_DGN":5928131.213}},{"type":"Feature","geometry":{"type":"Point","coordinates":[8.06147448,53.17242139]},"properties":{"STRECKE_NR":1520,"RICHTUNG":"0","KM_I":101120037,"KM_L":"11.2 + 37","BEZEICHNUNG":"Kayhauserfeld","STELLE_ART":"Bf","KUERZEL":"HKHF","GK_R_DGN":3437318.449,"GK_H_DGN":5893779.127}},{"type":"Feature","geometry":{"type":"Point","coordinates":[8.00395575,53.18245616]},"properties":{"STRECKE_NR":1520,"RICHTUNG":"0","KM_I":101520039,"KM_L":"15.2 + 39","BEZEICHNUNG":"Bad Zwischenahn","STELLE_ART":"Bf","KUERZEL":"HZWI","GK_R_DGN":3433487.919,"GK_H_DGN":5894947.819}},{"type":"Feature","geometry":{"type":"Point","coordinates":[7.8856728,53.20239546]},"properties":{"STRECKE_NR":1520,"RICHTUNG":"0","KM_I":102340064,"KM_L":"23.4 + 64","BEZEICHNUNG":"Westerstede-Ocholt","STELLE_ART":"Bf","KUERZEL":"HOCH","GK_R_DGN":3425615.224,"GK_H_DGN":5897283.325}},{"type":"Feature","geometry":{"type":"Point","coordinates":[7.7599157,53.22083659]},"properties":{"STRECKE_NR":1520,"RICHTUNG":"0","KM_I":103210049,"KM_L":"32.1 + 49","BEZEICHNUNG":"Augustfehn","STELLE_ART":"Bf","KUERZEL":"HAUG","GK_R_DGN":3417247.898,"GK_H_DGN":5899473.767}},{"type":"Feature","geometry":{"type":"Point","coordinates":[7.6542068,53.21675919]},"properties":{"STRECKE_NR":1520,"RICHTUNG":"0","KM_I":103950063,"KM_L":"39.5 + 63","BEZEICHNUNG":"Stickhausen-Velde (Ostfriesl)","STELLE_ART":"Bf","KUERZEL":"HSVL","GK_R_DGN":3410179.168,"GK_H_DGN":5899147.661}},{"type":"Feature","geometry":{"type":"Point","coordinates":[7.55768495,53.24800836]},"properties":{"STRECKE_NR":1520,"RICHTUNG":"0","KM_I":104750085,"KM_L":"47.5 + 85","BEZEICHNUNG":"Nortmoor","STELLE_ART":"Bf","KUERZEL":"HNTM","GK_R_DGN":3403802.173,"GK_H_DGN":5902750.732}},{"type":"Feature","geometry":{"type":"Point","coordinates":[7.46531548,53.23138825]},"properties":{"STRECKE_NR":1520,"RICHTUNG":"0","KM_I":105500004,"KM_L":"55.0 + 4","BEZEICHNUNG":"Leer (Ostfriesl)","STELLE_ART":"Bf","KUERZEL":"HLEE","GK_R_DGN":3397597.261,"GK_H_DGN":5901029.628}},{"type":"Feature","geometry":{"type":"Point","coordinates":[8.22261466,53.14410573]},"properties":{"STRECKE_NR":1522,"RICHTUNG":"0","KM_I":100000000,"KM_L":"0.0 + 0","BEZEICHNUNG":"Oldenburg (Oldb) Hbf","STELLE_ART":"Bf","KUERZEL":"HOLD","GK_R_DGN":3448059.19,"GK_H_DGN":5890498.836}},{"type":"Feature","geometry":{"type":"Point","coordinates":[8.19099491,53.24460883]},"properties":{"STRECKE_NR":1522,"RICHTUNG":"0","KM_I":101220002,"KM_L":"12.2 + 2","BEZEICHNUNG":"Rastede","STELLE_ART":"Bf","KUERZEL":"HRST","GK_R_DGN":3446069.927,"GK_H_DGN":5901706.885}},{"type":"Feature","geometry":{"type":"Point","coordinates":[8.15022184,53.39907721]},"properties":{"STRECKE_NR":1522,"RICHTUNG":"0","KM_I":103070054,"KM_L":"30.7 + 54","BEZEICHNUNG":"Varel (Oldb)","STELLE_ART":"Bf","KUERZEL":"HVA","GK_R_DGN":3443552.625,"GK_H_DGN":5918928.968}},{"type":"Feature","geometry":{"type":"Point","coordinates":[8.0315747,53.49047173]},"properties":{"STRECKE_NR":1522,"RICHTUNG":"0","KM_I":104500056,"KM_L":"45.0 + 56","BEZEICHNUNG":"Sande","STELLE_ART":"Bf","KUERZEL":"HSAN","GK_R_DGN":3435799.071,"GK_H_DGN":5929200.746}},{"type":"Feature","geometry":{"type":"Point","coordinates":[8.11559239,53.5187622]},"properties":{"STRECKE_NR":1522,"RICHTUNG":"0","KM_I":105230050,"KM_L":"52.3 + 50","BEZEICHNUNG":"Wilhelmshaven","STELLE_ART":"Bf","KUERZEL":"HW","GK_R_DGN":3441414.486,"GK_H_DGN":5932276.751}},{"type":"Feature","geometry":{"type":"Point","coordinates":[7.946382,53.54220129]},"properties":{"STRECKE_NR":1540,"RICHTUNG":"0","KM_I":100830046,"KM_L":"8.3 + 46","BEZEICHNUNG":"Schortens-Heidmühle","STELLE_ART":"Bf","KUERZEL":"HHDM","GK_R_DGN":3430229.914,"GK_H_DGN":5935037.925}},{"type":"Feature","geometry":{"type":"Point","coordinates":[7.89897875,53.78777097]},"properties":{"STRECKE_NR":1542,"RICHTUNG":"0","KM_I":100000000,"KM_L":"0.0 + 0","BEZEICHNUNG":"Wangerooge","STELLE_ART":"Bf","KUERZEL":"HWG","GK_R_DGN":3427510.715,"GK_H_DGN":5962415.403}},{"type":"Feature","geometry":{"type":"Point","coordinates":[7.87766232,53.78918458]},"properties":{"STRECKE_NR":1542,"RICHTUNG":"0","KM_I":100140035,"KM_L":"1.4 + 35","BEZEICHNUNG":"Wangerooge Saline","STELLE_ART":"Bf","KUERZEL":"HSA","GK_R_DGN":3426108.348,"GK_H_DGN":5962594.725}},{"type":"Feature","geometry":{"type":"Point","coordinates":[7.86657446,53.77387657]},"properties":{"STRECKE_NR":1542,"RICHTUNG":"0","KM_I":100350050,"KM_L":"3.5 + 50","BEZEICHNUNG":"Wangerooge Westanleger","STELLE_ART":"Bf","KUERZEL":"HWA","GK_R_DGN":3425350.437,"GK_H_DGN":5960902.647}},{"type":"Feature","geometry":{"type":"Point","coordinates":[7.87766232,53.78918458]},"properties":{"STRECKE_NR":1543,"RICHTUNG":"0","KM_I":100140035,"KM_L":"1.4 + 35","BEZEICHNUNG":"Wangerooge Saline","STELLE_ART":"Bf","KUERZEL":"HSA","GK_R_DGN":3426108.348,"GK_H_DGN":5962594.725}},{"type":"Feature","geometry":{"type":"Point","coordinates":[7.85162145,53.78889748]},"properties":{"STRECKE_NR":1543,"RICHTUNG":"0","KM_I":100330060,"KM_L":"3.3 + 60","BEZEICHNUNG":"Wangerooge Westen","STELLE_ART":"Bf","KUERZEL":"HWN","GK_R_DGN":3424391.676,"GK_H_DGN":5962590.215}},{"type":"Feature","geometry":{"type":"Point","coordinates":[7.89897875,53.78777097]},"properties":{"STRECKE_NR":1545,"RICHTUNG":"0","KM_I":100000000,"KM_L":"0.0 + 0","BEZEICHNUNG":"Wangerooge","STELLE_ART":"Bf","KUERZEL":"HWG","GK_R_DGN":3427510.715,"GK_H_DGN":5962415.403}},{"type":"Feature","geometry":{"type":"Point","coordinates":[7.99257041,53.53864077]},"properties":{"STRECKE_NR":1552,"RICHTUNG":"0","KM_I":100160000,"KM_L":"1.6 + 0","BEZEICHNUNG":"Accum (Kr Friesland)","STELLE_ART":"Bf","KUERZEL":"HACC","GK_R_DGN":3433286.123,"GK_H_DGN":5934597.375}},{"type":"Feature","geometry":{"type":"Point","coordinates":[8.08181504,53.59652972]},"properties":{"STRECKE_NR":1552,"RICHTUNG":"0","KM_I":101050050,"KM_L":"10.5 + 50","BEZEICHNUNG":"Wilhelmshaven Ölweiche","STELLE_ART":"Bf","KUERZEL":"HWOE","GK_R_DGN":3439285.724,"GK_H_DGN":5940959.989}},{"type":"Feature","geometry":{"type":"Point","coordinates":[8.08181504,53.59652972]},"properties":{"STRECKE_NR":1554,"RICHTUNG":"0","KM_I":99959933,"KM_L":"-0.4 + -66","BEZEICHNUNG":"Wilhelmshaven Ölweiche","STELLE_ART":"Bf","KUERZEL":"HWOE","GK_R_DGN":3439285.724,"GK_H_DGN":5940959.989}},{"type":"Feature","geometry":{"type":"Point","coordinates":[8.62967198,53.05274673]},"properties":{"STRECKE_NR":1560,"RICHTUNG":"0","KM_I":100000000,"KM_L":"0.0 + 0","BEZEICHNUNG":"Delmenhorst","STELLE_ART":"Bf","KUERZEL":"HD","GK_R_DGN":3475243.717,"GK_H_DGN":5880113.487}},{"type":"Feature","geometry":{"type":"Point","coordinates":[8.43152311,52.898284]},"properties":{"STRECKE_NR":1560,"RICHTUNG":"0","KM_I":102450022,"KM_L":"24.5 + 22","BEZEICHNUNG":"Wildeshausen","STELLE_ART":"Bf","KUERZEL":"HWIH","GK_R_DGN":3461820.796,"GK_H_DGN":5863011.294}},{"type":"Feature","geometry":{"type":"Point","coordinates":[8.28035339,52.72893487]},"properties":{"STRECKE_NR":1560,"RICHTUNG":"0","KM_I":104780056,"KM_L":"47.8 + 56","BEZEICHNUNG":"Vechta","STELLE_ART":"Bf","KUERZEL":"HVCH","GK_R_DGN":3451459.487,"GK_H_DGN":5844257.359}},{"type":"Feature","geometry":{"type":"Point","coordinates":[8.2292201,52.66532364]},"properties":{"STRECKE_NR":1560,"RICHTUNG":"0","KM_I":105590013,"KM_L":"55.9 + 13","BEZEICHNUNG":"Lohne (Oldb)","STELLE_ART":"Bf","KUERZEL":"HLON","GK_R_DGN":3447929.422,"GK_H_DGN":5837214.626}},{"type":"Feature","geometry":{"type":"Point","coordinates":[8.05937651,52.50827999]},"properties":{"STRECKE_NR":1560,"RICHTUNG":"0","KM_I":107820030,"KM_L":"78.2 + 30","BEZEICHNUNG":"Neuenkirchen (Oldb)","STELLE_ART":"Bf","KUERZEL":"HNKO","GK_R_DGN":3436211.124,"GK_H_DGN":5819876.207}},{"type":"Feature","geometry":{"type":"Point","coordinates":[7.20519445,53.360554]},"properties":{"STRECKE_NR":1570,"RICHTUNG":"0","KM_I":100090041,"KM_L":"0.9 + 41","BEZEICHNUNG":"Emden Rbf","STELLE_ART":"Bft","KUERZEL":"HER","GK_R_DGN":3380590.232,"GK_H_DGN":5915807.001}},{"type":"Feature","geometry":{"type":"Point","coordinates":[7.19505394,53.36907063]},"properties":{"STRECKE_NR":1570,"RICHTUNG":"0","KM_I":100220009,"KM_L":"2.2 + 9","BEZEICHNUNG":"Emden","STELLE_ART":"Bf","KUERZEL":"HE","GK_R_DGN":3379939.176,"GK_H_DGN":5916771.724}},{"type":"Feature","geometry":{"type":"Point","coordinates":[7.28527883,53.46503339]},"properties":{"STRECKE_NR":1570,"RICHTUNG":"0","KM_I":101480027,"KM_L":"14.8 + 27","BEZEICHNUNG":"Abelitz","STELLE_ART":"Bf","KUERZEL":"HABZ","GK_R_DGN":3386200.705,"GK_H_DGN":5927302.315}},{"type":"Feature","geometry":{"type":"Point","coordinates":[7.27044587,53.52092439]},"properties":{"STRECKE_NR":1570,"RICHTUNG":"0","KM_I":102210078,"KM_L":"22.1 + 78","BEZEICHNUNG":"Marienhafe","STELLE_ART":"Bf","KUERZEL":"HMAR","GK_R_DGN":3385366.685,"GK_H_DGN":5933545.669}},{"type":"Feature","geometry":{"type":"Point","coordinates":[7.22099792,53.58675212]},"properties":{"STRECKE_NR":1570,"RICHTUNG":"0","KM_I":103040017,"KM_L":"30.4 + 17","BEZEICHNUNG":"Norden","STELLE_ART":"Bf","KUERZEL":"HNN","GK_R_DGN":3382270.474,"GK_H_DGN":5940951.758}},{"type":"Feature","geometry":{"type":"Point","coordinates":[7.19483757,53.36904829]},"properties":{"STRECKE_NR":1572,"RICHTUNG":"0","KM_I":99939995,"KM_L":"-0.6 + -4","BEZEICHNUNG":"Emden","STELLE_ART":"Bf","KUERZEL":"HE","GK_R_DGN":3379924.713,"GK_H_DGN":5916769.602}},{"type":"Feature","geometry":{"type":"Point","coordinates":[7.28535318,53.46499744]},"properties":{"STRECKE_NR":1573,"RICHTUNG":"0","KM_I":100000041,"KM_L":"0.0 + 41","BEZEICHNUNG":"Abelitz","STELLE_ART":"Bf","KUERZEL":"HABZ","GK_R_DGN":3386205.546,"GK_H_DGN":5927298.195}},{"type":"Feature","geometry":{"type":"Point","coordinates":[7.16075864,53.6215557]},"properties":{"STRECKE_NR":1574,"RICHTUNG":"0","KM_I":103610066,"KM_L":"36.1 + 66","BEZEICHNUNG":"Norddeich","STELLE_ART":"Bf","KUERZEL":"HND","GK_R_DGN":3378381.935,"GK_H_DGN":5944926.092}},{"type":"Feature","geometry":{"type":"Point","coordinates":[7.15865006,53.62425311]},"properties":{"STRECKE_NR":1574,"RICHTUNG":"0","KM_I":103650008,"KM_L":"36.5 + 8","BEZEICHNUNG":"Norddeich Mole","STELLE_ART":"Bft","KUERZEL":"HNDM","GK_R_DGN":3378250.204,"GK_H_DGN":5945229.869}},{"type":"Feature","geometry":{"type":"Point","coordinates":[7.44694683,53.16471387]},"properties":{"STRECKE_NR":1575,"RICHTUNG":"0","KM_I":99999984,"KM_L":"-0.0 + -15","BEZEICHNUNG":"Ihrhove","STELLE_ART":"Bf","KUERZEL":"HIHV","GK_R_DGN":3396209.704,"GK_H_DGN":5893636.723}},{"type":"Feature","geometry":{"type":"Point","coordinates":[8.06129055,52.272317]},"properties":{"STRECKE_NR":1600,"RICHTUNG":"0","KM_I":100000000,"KM_L":"0.0 + 0","BEZEICHNUNG":"Osnabrück Hbf","STELLE_ART":"Bf","KUERZEL":"HO","GK_R_DGN":3436000.272,"GK_H_DGN":5793618.816}},{"type":"Feature","geometry":{"type":"Point","coordinates":[8.09025431,52.27348115]},"properties":{"STRECKE_NR":1600,"RICHTUNG":"0","KM_I":100250061,"KM_L":"2.5 + 61","BEZEICHNUNG":"Osnabrück Stahlwerkskurve","STELLE_ART":"Bft","KUERZEL":"HSTA","GK_R_DGN":3437978.906,"GK_H_DGN":5793723.123}},{"type":"Feature","geometry":{"type":"Point","coordinates":[8.09027462,52.27341954]},"properties":{"STRECKE_NR":1611,"RICHTUNG":"0","KM_I":100250071,"KM_L":"2.5 + 71","BEZEICHNUNG":"Osnabrück Stahlwerkskurve","STELLE_ART":"Bft","KUERZEL":"HSTA","GK_R_DGN":3437980.206,"GK_H_DGN":5793716.25}},{"type":"Feature","geometry":{"type":"Point","coordinates":[8.08249005,52.26768066]},"properties":{"STRECKE_NR":1620,"RICHTUNG":"0","KM_I":100190000,"KM_L":"1.9 + 0","BEZEICHNUNG":"Osnabrück Rbf","STELLE_ART":"Bft","KUERZEL":"HOR","GK_R_DGN":3437440.772,"GK_H_DGN":5793084.397}},{"type":"Feature","geometry":{"type":"Point","coordinates":[9.74214992,52.37743453]},"properties":{"STRECKE_NR":1700,"RICHTUNG":"0","KM_I":100000000,"KM_L":"0.0 + 0","BEZEICHNUNG":"Hannover Hbf","STELLE_ART":"Bf","KUERZEL":"HH","GK_R_DGN":3550615.028,"GK_H_DGN":5805159.644}},{"type":"Feature","geometry":{"type":"Point","coordinates":[9.59437754,52.39169055]},"properties":{"STRECKE_NR":1700,"RICHTUNG":"0","KM_I":101100097,"KM_L":"11.0 + 97","BEZEICHNUNG":"Seelze","STELLE_ART":"Bf","KUERZEL":"HS","GK_R_DGN":3540539.076,"GK_H_DGN":5806652.98}},{"type":"Feature","geometry":{"type":"Point","coordinates":[9.45124509,52.42202497]},"properties":{"STRECKE_NR":1700,"RICHTUNG":"0","KM_I":102140001,"KM_L":"21.4 + 1","BEZEICHNUNG":"Wunstorf","STELLE_ART":"Bf","KUERZEL":"HWUN","GK_R_DGN":3530774.136,"GK_H_DGN":5809957.963}},{"type":"Feature","geometry":{"type":"Point","coordinates":[9.38838851,52.37921329]},"properties":{"STRECKE_NR":1700,"RICHTUNG":"0","KM_I":102830015,"KM_L":"28.3 + 15","BEZEICHNUNG":"Haste","STELLE_ART":"Bf","KUERZEL":"HHAS","GK_R_DGN":3526523.62,"GK_H_DGN":5805169.314}},{"type":"Feature","geometry":{"type":"Point","coordinates":[9.35116236,52.36747315]},"properties":{"STRECKE_NR":1700,"RICHTUNG":"0","KM_I":103120039,"KM_L":"31.2 + 39","BEZEICHNUNG":"Rehren","STELLE_ART":"Bf","KUERZEL":"HRER","GK_R_DGN":3523995.028,"GK_H_DGN":5803849.99}},{"type":"Feature","geometry":{"type":"Point","coordinates":[9.28877657,52.35432926]},"properties":{"STRECKE_NR":1700,"RICHTUNG":"0","KM_I":103570031,"KM_L":"35.7 + 31","BEZEICHNUNG":"Lindhorst (Schaumb-Lippe)","STELLE_ART":"Bf","KUERZEL":"HLH","GK_R_DGN":3519751.542,"GK_H_DGN":5802368.632}},{"type":"Feature","geometry":{"type":"Point","coordinates":[9.18867545,52.33272628]},"properties":{"STRECKE_NR":1700,"RICHTUNG":"0","KM_I":104290067,"KM_L":"42.9 + 67","BEZEICHNUNG":"Stadthagen","STELLE_ART":"Bf","KUERZEL":"HSHG","GK_R_DGN":3512937.522,"GK_H_DGN":5799942.299}},{"type":"Feature","geometry":{"type":"Point","coordinates":[9.11949774,52.30778383]},"properties":{"STRECKE_NR":1700,"RICHTUNG":"0","KM_I":104850018,"KM_L":"48.5 + 18","BEZEICHNUNG":"Kirchhorsten","STELLE_ART":"Bf","KUERZEL":"HKHN","GK_R_DGN":3508226.447,"GK_H_DGN":5797156.843}},{"type":"Feature","geometry":{"type":"Point","coordinates":[9.04731431,52.26772991]},"properties":{"STRECKE_NR":1700,"RICHTUNG":"0","KM_I":105520008,"KM_L":"55.2 + 8","BEZEICHNUNG":"Bückeburg","STELLE_ART":"Bf","KUERZEL":"HBKB","GK_R_DGN":3503306.04,"GK_H_DGN":5792694.28}},{"type":"Feature","geometry":{"type":"Point","coordinates":[8.94908053,52.29753362]},"properties":{"STRECKE_NR":1700,"RICHTUNG":"0","KM_I":106300000,"KM_L":"63.0 + 0","BEZEICHNUNG":"Minden (Westf) Gbf","STELLE_ART":"Bft","KUERZEL":"HM  G","GK_R_DGN":3496602.225,"GK_H_DGN":5796010.771}},{"type":"Feature","geometry":{"type":"Point","coordinates":[8.93476446,52.29047868]},"properties":{"STRECKE_NR":1700,"RICHTUNG":"0","KM_I":106430069,"KM_L":"64.3 + 69","BEZEICHNUNG":"Minden (Westf)","STELLE_ART":"Bf","KUERZEL":"HM","GK_R_DGN":3495624.855,"GK_H_DGN":5795226.534}},{"type":"Feature","geometry":{"type":"Point","coordinates":[8.71372545,52.19658882]},"properties":{"STRECKE_NR":1700,"RICHTUNG":"0","KM_I":108520075,"KM_L":"85.2 + 75","BEZEICHNUNG":"Löhne (Westf) Pbf","STELLE_ART":"Bf","KUERZEL":"HL","GK_R_DGN":3480501.611,"GK_H_DGN":5784815.907}},{"type":"Feature","geometry":{"type":"Point","coordinates":[8.66364058,52.11972841]},"properties":{"STRECKE_NR":1700,"RICHTUNG":"0","KM_I":109550098,"KM_L":"95.5 + 98","BEZEICHNUNG":"Herford","STELLE_ART":"Bf","KUERZEL":"EHFD","GK_R_DGN":3477037.349,"GK_H_DGN":5776278.402}},{"type":"Feature","geometry":{"type":"Point","coordinates":[8.53269277,52.02944733]},"properties":{"STRECKE_NR":1700,"RICHTUNG":"0","KM_I":110940050,"KM_L":"109.4 + 50","BEZEICHNUNG":"Bielefeld Hbf","STELLE_ART":"Bf","KUERZEL":"EBIL","GK_R_DGN":3468003.593,"GK_H_DGN":5766282.716}},{"type":"Feature","geometry":{"type":"Point","coordinates":[8.49849178,51.99722317]},"properties":{"STRECKE_NR":1700,"RICHTUNG":"0","KM_I":111370070,"KM_L":"113.7 + 70","BEZEICHNUNG":"Brackwede","STELLE_ART":"Bf","KUERZEL":"EBWE","GK_R_DGN":3465631.574,"GK_H_DGN":5762712.906}},{"type":"Feature","geometry":{"type":"Point","coordinates":[8.38493769,51.90693517]},"properties":{"STRECKE_NR":1700,"RICHTUNG":"0","KM_I":112680078,"KM_L":"126.8 + 78","BEZEICHNUNG":"Gütersloh Hbf","STELLE_ART":"Bf","KUERZEL":"EGLO","GK_R_DGN":3457747.62,"GK_H_DGN":5752726.951}},{"type":"Feature","geometry":{"type":"Point","coordinates":[8.28639642,51.85730084]},"properties":{"STRECKE_NR":1700,"RICHTUNG":"0","KM_I":113570093,"KM_L":"135.7 + 93","BEZEICHNUNG":"Rheda-Wiedenbrück","STELLE_ART":"Bf","KUERZEL":"ERDW","GK_R_DGN":3450912,"GK_H_DGN":5747266.395}},{"type":"Feature","geometry":{"type":"Point","coordinates":[8.14292914,51.82924333]},"properties":{"STRECKE_NR":1700,"RICHTUNG":"0","KM_I":114610061,"KM_L":"146.1 + 61","BEZEICHNUNG":"Oelde","STELLE_ART":"Bf","KUERZEL":"EOEL","GK_R_DGN":3440991.198,"GK_H_DGN":5744251.25}},{"type":"Feature","geometry":{"type":"Point","coordinates":[8.02130227,51.80194144]},"properties":{"STRECKE_NR":1700,"RICHTUNG":"0","KM_I":115510005,"KM_L":"155.1 + 5","BEZEICHNUNG":"Neubeckum","STELLE_ART":"Bf","KUERZEL":"ENBM","GK_R_DGN":3432565.865,"GK_H_DGN":5741319.265}},{"type":"Feature","geometry":{"type":"Point","coordinates":[7.89533658,51.76110515]},"properties":{"STRECKE_NR":1700,"RICHTUNG":"0","KM_I":116500068,"KM_L":"165.0 + 68","BEZEICHNUNG":"Ahlen (Westf)","STELLE_ART":"Bf","KUERZEL":"EAHL","GK_R_DGN":3423808.212,"GK_H_DGN":5736900.067}},{"type":"Feature","geometry":{"type":"Point","coordinates":[7.80739081,51.67804049]},"properties":{"STRECKE_NR":1700,"RICHTUNG":"0","KM_I":117630090,"KM_L":"176.3 + 90","BEZEICHNUNG":"Hamm (Westf) Pbf","STELLE_ART":"Bf","KUERZEL":"EHM","GK_R_DGN":3417585.461,"GK_H_DGN":5727754.252}},{"type":"Feature","geometry":{"type":"Point","coordinates":[9.67784995,52.40210782]},"properties":{"STRECKE_NR":1702,"RICHTUNG":"0","KM_I":100540061,"KM_L":"5.4 + 61","BEZEICHNUNG":"Hannover-Leinhausen Wbf","STELLE_ART":"Bft","KUERZEL":"HHAW","GK_R_DGN":3546210.644,"GK_H_DGN":5807862.116}},{"type":"Feature","geometry":{"type":"Point","coordinates":[9.74117966,52.37666291]},"properties":{"STRECKE_NR":1705,"RICHTUNG":"0","KM_I":99999988,"KM_L":"-0.0 + -11","BEZEICHNUNG":"Hannover Hbf","STELLE_ART":"Bf","KUERZEL":"HH","GK_R_DGN":3550549.836,"GK_H_DGN":5805073.107}},{"type":"Feature","geometry":{"type":"Point","coordinates":[9.71721153,52.39396939]},"properties":{"STRECKE_NR":1705,"RICHTUNG":"0","KM_I":100260015,"KM_L":"2.6 + 15","BEZEICHNUNG":"Hannover-Nordstadt","STELLE_ART":"Bft","KUERZEL":"HHN","GK_R_DGN":3548898.549,"GK_H_DGN":5806982.378}},{"type":"Feature","geometry":{"type":"Point","coordinates":[9.70141542,52.3973433]},"properties":{"STRECKE_NR":1705,"RICHTUNG":"0","KM_I":100370058,"KM_L":"3.7 + 58","BEZEICHNUNG":"Hannover-Hainholz","STELLE_ART":"Bft","KUERZEL":"HHZ","GK_R_DGN":3547819.638,"GK_H_DGN":5807347.253}},{"type":"Feature","geometry":{"type":"Point","coordinates":[9.59436042,52.39181337]},"properties":{"STRECKE_NR":1705,"RICHTUNG":"0","KM_I":101100097,"KM_L":"11.0 + 97","BEZEICHNUNG":"Seelze","STELLE_ART":"Bf","KUERZEL":"HS","GK_R_DGN":3540537.798,"GK_H_DGN":5806666.637}},{"type":"Feature","geometry":{"type":"Point","coordinates":[9.74173223,52.37710558]},"properties":{"STRECKE_NR":1710,"RICHTUNG":"0","KM_I":100000000,"KM_L":"0.0 + 0","BEZEICHNUNG":"Hannover Hbf","STELLE_ART":"Bf","KUERZEL":"HH","GK_R_DGN":3550586.96,"GK_H_DGN":5805122.749}},{"type":"Feature","geometry":{"type":"Point","coordinates":[9.70832622,52.42451063]},"properties":{"STRECKE_NR":1710,"RICHTUNG":"0","KM_I":100780050,"KM_L":"7.8 + 50","BEZEICHNUNG":"Hannover-Vinnhorst","STELLE_ART":"Bf","KUERZEL":"HVIN","GK_R_DGN":3548260.417,"GK_H_DGN":5810374.813}},{"type":"Feature","geometry":{"type":"Point","coordinates":[9.725394,52.44013856]},"properties":{"STRECKE_NR":1710,"RICHTUNG":"0","KM_I":100990040,"KM_L":"9.9 + 40","BEZEICHNUNG":"Langenhagen Mitte","STELLE_ART":"Bft","KUERZEL":"HLGM","GK_R_DGN":3549403.997,"GK_H_DGN":5812125.29}},{"type":"Feature","geometry":{"type":"Point","coordinates":[9.73607471,52.45097422]},"properties":{"STRECKE_NR":1710,"RICHTUNG":"0","KM_I":101130050,"KM_L":"11.3 + 50","BEZEICHNUNG":"Langenhagen Pferdemarkt","STELLE_ART":"Bf","KUERZEL":"HLGH","GK_R_DGN":3550118.012,"GK_H_DGN":5813338.348}},{"type":"Feature","geometry":{"type":"Point","coordinates":[9.80319325,52.48582457]},"properties":{"STRECKE_NR":1710,"RICHTUNG":"0","KM_I":101740048,"KM_L":"17.4 + 48","BEZEICHNUNG":"Isernhagen","STELLE_ART":"Bf","KUERZEL":"HIHG","GK_R_DGN":3554637.874,"GK_H_DGN":5817264.846}},{"type":"Feature","geometry":{"type":"Point","coordinates":[9.70816976,52.42451218]},"properties":{"STRECKE_NR":1711,"RICHTUNG":"0","KM_I":100780070,"KM_L":"7.8 + 70","BEZEICHNUNG":"Hannover-Vinnhorst","STELLE_ART":"Bf","KUERZEL":"HVIN","GK_R_DGN":3548249.772,"GK_H_DGN":5810374.882}},{"type":"Feature","geometry":{"type":"Point","coordinates":[9.7258146,52.44076948]},"properties":{"STRECKE_NR":1711,"RICHTUNG":"0","KM_I":101000041,"KM_L":"10.0 + 41","BEZEICHNUNG":"Langenhagen Mitte","STELLE_ART":"Bft","KUERZEL":"HLGM","GK_R_DGN":3549431.893,"GK_H_DGN":5812195.781}},{"type":"Feature","geometry":{"type":"Point","coordinates":[9.73584144,52.4510264]},"properties":{"STRECKE_NR":1711,"RICHTUNG":"0","KM_I":101130074,"KM_L":"11.3 + 74","BEZEICHNUNG":"Langenhagen Pferdemarkt","STELLE_ART":"Bf","KUERZEL":"HLGH","GK_R_DGN":3550102.094,"GK_H_DGN":5813343.993}},{"type":"Feature","geometry":{"type":"Point","coordinates":[9.74808206,52.52235794]},"properties":{"STRECKE_NR":1711,"RICHTUNG":"0","KM_I":101950087,"KM_L":"19.5 + 87","BEZEICHNUNG":"Bissendorf","STELLE_ART":"Bf","KUERZEL":"HBSS","GK_R_DGN":3550852.049,"GK_H_DGN":5821289.854}},{"type":"Feature","geometry":{"type":"Point","coordinates":[9.74431284,52.54858343]},"properties":{"STRECKE_NR":1711,"RICHTUNG":"0","KM_I":102250030,"KM_L":"22.5 + 30","BEZEICHNUNG":"Mellendorf","STELLE_ART":"Bf","KUERZEL":"HMDF","GK_R_DGN":3550566.125,"GK_H_DGN":5824205.439}},{"type":"Feature","geometry":{"type":"Point","coordinates":[9.72718052,52.58035091]},"properties":{"STRECKE_NR":1711,"RICHTUNG":"0","KM_I":102620083,"KM_L":"26.2 + 83","BEZEICHNUNG":"Bennemühlen","STELLE_ART":"Bf","KUERZEL":"HBML","GK_R_DGN":3549368.352,"GK_H_DGN":5827728.523}},{"type":"Feature","geometry":{"type":"Point","coordinates":[9.62429693,52.67854237]},"properties":{"STRECKE_NR":1711,"RICHTUNG":"0","KM_I":104010036,"KM_L":"40.1 + 36","BEZEICHNUNG":"Schwarmstedt","STELLE_ART":"Bf","KUERZEL":"HSWS","GK_R_DGN":3542299.788,"GK_H_DGN":5838589.645}},{"type":"Feature","geometry":{"type":"Point","coordinates":[9.59525898,52.76640285]},"properties":{"STRECKE_NR":1711,"RICHTUNG":"0","KM_I":105090061,"KM_L":"50.9 + 61","BEZEICHNUNG":"Hodenhagen","STELLE_ART":"Bf","KUERZEL":"HHOD","GK_R_DGN":3540255.022,"GK_H_DGN":5848350.039}},{"type":"Feature","geometry":{"type":"Point","coordinates":[9.60101211,52.86478043]},"properties":{"STRECKE_NR":1712,"RICHTUNG":"0","KM_I":106200035,"KM_L":"62.0 + 35","BEZEICHNUNG":"Walsrode","STELLE_ART":"Bf","KUERZEL":"HWSR","GK_R_DGN":3540551.851,"GK_H_DGN":5859300.781}},{"type":"Feature","geometry":{"type":"Point","coordinates":[9.70018703,52.86281571]},"properties":{"STRECKE_NR":1712,"RICHTUNG":"0","KM_I":107020097,"KM_L":"70.2 + 97","BEZEICHNUNG":"Bad Fallingbostel","STELLE_ART":"Bf","KUERZEL":"HFAL","GK_R_DGN":3547232.943,"GK_H_DGN":5859142.61}},{"type":"Feature","geometry":{"type":"Point","coordinates":[9.77124275,52.89915113]},"properties":{"STRECKE_NR":1712,"RICHTUNG":"0","KM_I":107680001,"KM_L":"76.8 + 1","BEZEICHNUNG":"Dorfmark","STELLE_ART":"Bf","KUERZEL":"HDMK","GK_R_DGN":3551974.999,"GK_H_DGN":5863235.033}},{"type":"Feature","geometry":{"type":"Point","coordinates":[9.83104467,52.98289332]},"properties":{"STRECKE_NR":1712,"RICHTUNG":"0","KM_I":108790060,"KM_L":"87.9 + 60","BEZEICHNUNG":"Soltau (Han)","STELLE_ART":"Bf","KUERZEL":"HSO","GK_R_DGN":3555891.281,"GK_H_DGN":5872598.863}},{"type":"Feature","geometry":{"type":"Point","coordinates":[9.83104467,52.98289332]},"properties":{"STRECKE_NR":1712,"RICHTUNG":"0","KM_I":108790060,"KM_L":"87.9 + 60","BEZEICHNUNG":"Soltau (Han)","STELLE_ART":"Bf","KUERZEL":"HSO","GK_R_DGN":3555891.281,"GK_H_DGN":5872598.863}},{"type":"Feature","geometry":{"type":"Point","coordinates":[9.79864386,53.11124919]},"properties":{"STRECKE_NR":1712,"RICHTUNG":"0","KM_I":110550015,"KM_L":"105.5 + 15","BEZEICHNUNG":"Schneverdingen","STELLE_ART":"Bf","KUERZEL":"ASDN","GK_R_DGN":3553556.07,"GK_H_DGN":5886858.052}},{"type":"Feature","geometry":{"type":"Point","coordinates":[9.84463548,53.24196221]},"properties":{"STRECKE_NR":1712,"RICHTUNG":"0","KM_I":112170087,"KM_L":"121.7 + 87","BEZEICHNUNG":"Handeloh","STELLE_ART":"Bf","KUERZEL":"AHAN","GK_R_DGN":3556464.101,"GK_H_DGN":5901439.857}},{"type":"Feature","geometry":{"type":"Point","coordinates":[9.87612245,53.32465424]},"properties":{"STRECKE_NR":1712,"RICHTUNG":"0","KM_I":113300062,"KM_L":"133.0 + 62","BEZEICHNUNG":"Buchholz (Nordheide)","STELLE_ART":"Bf","KUERZEL":"ABLZ","GK_R_DGN":3558453.322,"GK_H_DGN":5910667.722}},{"type":"Feature","geometry":{"type":"Point","coordinates":[9.69901874,52.45895443]},"properties":{"STRECKE_NR":1713,"RICHTUNG":"0","KM_I":101530062,"KM_L":"15.3 + 62","BEZEICHNUNG":"Hannover Flughafen","STELLE_ART":"Bf","KUERZEL":"HLGF","GK_R_DGN":3547590.207,"GK_H_DGN":5814201.317}},{"type":"Feature","geometry":{"type":"Point","coordinates":[9.97240311,52.38264846]},"properties":{"STRECKE_NR":1720,"RICHTUNG":"0","KM_I":101680000,"KM_L":"16.8 + 0","BEZEICHNUNG":"Lehrte Nord","STELLE_ART":"Bft","KUERZEL":"HLERN","GK_R_DGN":3566286.698,"GK_H_DGN":5805925.631}},{"type":"Feature","geometry":{"type":"Point","coordinates":[10.00301714,52.44905525]},"properties":{"STRECKE_NR":1720,"RICHTUNG":"0","KM_I":102440099,"KM_L":"24.4 + 99","BEZEICHNUNG":"Burgdorf","STELLE_ART":"Bf","KUERZEL":"HBGD","GK_R_DGN":3568268.626,"GK_H_DGN":5813343.204}},{"type":"Feature","geometry":{"type":"Point","coordinates":[10.0295431,52.52360874]},"properties":{"STRECKE_NR":1720,"RICHTUNG":"0","KM_I":103290085,"KM_L":"32.9 + 85","BEZEICHNUNG":"Ehlershausen","STELLE_ART":"Bf","KUERZEL":"HELH","GK_R_DGN":3569953.756,"GK_H_DGN":5821664.239}},{"type":"Feature","geometry":{"type":"Point","coordinates":[10.06246963,52.62099445]},"properties":{"STRECKE_NR":1720,"RICHTUNG":"0","KM_I":104400046,"KM_L":"44.0 + 46","BEZEICHNUNG":"Celle","STELLE_ART":"Bf","KUERZEL":"HC","GK_R_DGN":3572028.903,"GK_H_DGN":5832532.988}},{"type":"Feature","geometry":{"type":"Point","coordinates":[10.12072435,52.66936529]},"properties":{"STRECKE_NR":1720,"RICHTUNG":"0","KM_I":105080064,"KM_L":"50.8 + 64","BEZEICHNUNG":"Garßen","STELLE_ART":"Bf","KUERZEL":"HGAR","GK_R_DGN":3575890.218,"GK_H_DGN":5837975.111}},{"type":"Feature","geometry":{"type":"Point","coordinates":[10.23116949,52.74153202]},"properties":{"STRECKE_NR":1720,"RICHTUNG":"0","KM_I":106180019,"KM_L":"61.8 + 19","BEZEICHNUNG":"Eschede","STELLE_ART":"Bf","KUERZEL":"HESD","GK_R_DGN":3583223.97,"GK_H_DGN":5846127.291}},{"type":"Feature","geometry":{"type":"Point","coordinates":[10.29976775,52.83445386]},"properties":{"STRECKE_NR":1720,"RICHTUNG":"0","KM_I":107320004,"KM_L":"73.2 + 4","BEZEICHNUNG":"Unterlüß","STELLE_ART":"Bf","KUERZEL":"HUNL","GK_R_DGN":3587669.758,"GK_H_DGN":5856548.532}},{"type":"Feature","geometry":{"type":"Point","coordinates":[10.43282492,52.90499803]},"properties":{"STRECKE_NR":1720,"RICHTUNG":"0","KM_I":108540085,"KM_L":"85.4 + 85","BEZEICHNUNG":"Suderburg","STELLE_ART":"Bf","KUERZEL":"HSUD","GK_R_DGN":3596479.704,"GK_H_DGN":5864568.679}},{"type":"Feature","geometry":{"type":"Point","coordinates":[10.49434006,52.93385509]},